id,name,mass_g,fall,year,latitude,longitude
5295,castrovillari,15000,fell,1583,39.8,16.2
16745,morito,10100000,found,1600,27.05,-105.43333
12069,jalandhar,1967,fell,1621,31,75
23732,stretchleigh,10400,fell,1623,50.38333,-3.95
11855,hatford,29000,fell,1628,51.65,-1.51667
16692,minamino,1040,fell,1632,35.07833,136.93333
16805,mount_vaisi,17000,fell,1637,44.08333,6.86667
18033,ortenau,4500,fell,1671,48.5,8
23457,schellin,7000,fell,1715,53.35,15.05
23615,siratik,1700,found,1716,14,-11
23722,steinbach,98000,found,1724,50.5,12.5
22396,rasgrad,24700,fell,1740,43.5,26.53333
17994,ogi,14360,fell,1741,33.28333,130.2
12356,krasnojarsk,700000,found,1749,54.9,91.8
11916,hraschina,49000,fell,1751,46.1,16.33333
14757,luponnas,14000,fell,1753,46.21667,5
23776,tabor,7540,fell,1753,49.4,14.65
453,albareto,2000,fell,1766,44.65,11.01667
14724,lucé,3500,fell,1768,47.85,0.48333
15446,mauerkirchen,19000,fell,1768,48.18333,13.13333
23495,sena,4000,fell,1773,41.71667,-0.05
22642,rodach,2900,fell,1775,50.35,10.8
24018,toluca,3000000,found,1776,19.56667,-99.56667
14695,longchang,158500,found,1781,29.3,105.3
5015,bendegó,5360000,found,1784,-10.11667,-39.2
7775,eichstädt,3000,fell,1785,48.9,11.21667
12291,kharkov,1500,fell,1787,50.625,35.075
4942,barbotan,6400,fell,1790,43.95,-0.05
30381,zacatecas_(1792),1000000,found,1792,22.81667,-102.56667
5261,cape_of_good_hope,136000,found,1793,-33.5,26
23586,siena,3700,fell,1794,43.11667,11.6
24325,wold_cottage,25000,fell,1795,54.13667,-0.41333
5063,bjelaja_zerkov,1850,fell,1796,49.78333,30.16667
18876,portugal,4500,fell,1796,38.5,-8
18884,prambanan,500000,found,1797,-7.56667,110.83333
5011,benares_(a),3700,fell,1798,25.36667,82.91667
23111,salles,9000,fell,1798,46.05,4.63333
2320,apt,3200,fell,1803,43.86667,5.38333
12434,l'aigle,37000,fell,1803,48.76667,0.63333
15443,mässing,1600,fell,1803,48.13333,12.61667
5326,charcas,1400000,found,1804,23.08333,-101.01667
7751,durango,164000,found,1804,0,0
11884,high_possil,4500,fell,1804,55.9,-4.23333
16705,misteca,10000,found,1804,16.8,-97.1
5062,bitburg,1500000,found,1805,49.96667,6.53333
7718,doroninsk,3891,fell,1805,51.2,112.3
448,alais,6000,fell,1806,44.11667,4.08333
24004,timochin,65500,fell,1807,54.5,35.2
24249,weston,150000,fell,1807,41.266667,-73.266667
5110,borgo_san_donino,1676,fell,1808,44.86667,10.05
14661,lissa,12800,fell,1808,50.2,14.85
22548,red_river,800000,found,1808,32,-95
23713,stannern,52000,fell,1808,49.28333,15.56667
5130,brahin,823000,found,1810,52.5,30.33333
5296,caswell_county,1360,fell,1810,36.5,-79.25
5329,charsonville,27000,fell,1810,47.93333,1.56667
16737,mooresfort,3520,fell,1810,52.45,-8.33333
23167,santa_rosa,825000,found,1810,5.91667,-73
5029,berlanguillas,1440,fell,1811,41.68333,-3.8
12370,kuleschovka,6000,fell,1811,50.75,33.5
5325,chantonnay,31500,fell,1812,46.68333,1.05
10049,erxleben,2250,fell,1812,52.21667,11.25
24036,toulouse,1030,fell,1812,43.6,1.4
14652,limerick,50000,fell,1813,52.56667,-8.78333
392,agen,30000,fell,1814,44.21667,0.61667
4917,bachmut,18000,fell,1814,48.6,38
12763,lenarto,108500,found,1814,49,21
5331,chassigny,4000,fell,1815,47.71667,5.36667
7750,durala,13200,fell,1815,30.3,76.63333
5203,cambria,16300,found,1818,43.2,-78.8
5262,cape_york,58200000,found,1818,76.13333,-64.93333
23501,seres,8500,fell,1818,41.05,23.56667
23645,slobodka,2750,fell,1818,55,35
30379,zaborzika,3867,fell,1818,50.28333,27.68333
5172,burlington,68000,found,1819,42.75,-75.18333
12202,jonzac,5000,fell,1819,45.43333,-0.45
18853,pohlitz,3000,fell,1819,50.93333,12.13333
14670,lixna,5213,fell,1820,56,26.43333
12214,juvinas,91000,fell,1821,44.71667,4.3
10839,futtehpur,4000,fell,1822,25.95,80.81667
11444,guilford_county,1100,found,1822,35.56667,-79.83333
12025,imilac,920000,found,1822,-24.20333,-68.80667
16984,nobleborough,2300,fell,1823,44.08333,-69.48333
24037,tounkin,2000,fell,1824,51.73333,102.53333
30397,zebrak,2000,fell,1824,49.88333,13.91667
11904,honolulu,2420,fell,1825,21.3,-157.86667
16904,nanjemoy,7500,fell,1825,38.41667,-77.16667
30349,yanhuitlan,421000,found,1825,17.53333,-97.35
18176,pavlograd,40000,fell,1826,48.53333,35.98333
5042,bialystok,4000,fell,1827,53.1,23.2
7728,drake_creek,5000,fell,1827,36.4,-86.5
12393,la_caille,626000,found,1828,43.73333,6.78333
22603,richmond,1800,fell,1828,37.46667,-77.5
5099,bohumilitz,59000,found,1829,49.05,13.76667
10164,forsyth,16300,fell,1829,33.01667,-83.96667
12355,krasnoi-ugol,2440,fell,1829,54.03333,40.9
12740,launton,1060,fell,1830,51.9,-1.11667
24191,vouillé,20000,fell,1831,46.63333,0.16667
24244,wessely,3750,fell,1831,48.95,17.38333
24204,walker_county,74800,found,1832,34,-87.16667
5330,charwallas,12000,fell,1834,29.48333,75.5
14651,lime_creek,20000,found,1834,31.55,-87.51667
18002,okniny,12000,fell,1834,50.83333,25.5
5328,charlotte,4300,fell,1835,36.16667,-87.33333
10912,gibeon,26000000,found,1836,-25.5,18
15370,macau,1500,fell,1836,-5.2,-36.66667
24257,wichita_county,145000,found,1836,34.06667,-98.91667
5387,coahuila,2100000,found,1837,28.7,-102.73333
5450,cosby's_creek,960000,found,1837,35.78333,-83.25
10051,esnandes,1500,fell,1837,46.25,-1.1
11207,gross-divina,10500,fell,1837,49.26667,18.71667
30366,yonozu,31650,fell,1837,37.75,139
427,akbarpur,1800,fell,1838,29.71667,77.95
5320,chandakapur,8800,fell,1838,20.26667,76.01667
5397,cold_bokkeveld,5200,fell,1838,-33.13333,19.38333
23602,simbirsk_(of_p._partsch),1500,found,1838,54.3,48.4
18906,putnam_county,32700,found,1839,33.25,-83.25
23650,smithland,5000,found,1839,37.13333,-88.4
5282,carthage,127000,found,1840,36.26667,-85.98333
5308,cereseto,6460,fell,1840,45.08333,8.3
12256,karakol,3000,fell,1840,47.21667,81.01667
15388,magura,150000,found,1840,49.33333,19.48333
23654,smithville,70500,found,1840,35.98333,-85.85
5332,château-renard,30000,fell,1841,47.93333,2.91667
18803,petropavlovsk,7000,found,1841,53.35,87.18333
23082,st._christophe-la-chartreuse,5500,fell,1841,46.95,-1.5
4900,aumieres,2000,fell,1842,44.33333,3.23333
4916,babb's_mill_(troost's_iron),6400,found,1842,36.3,-82.88333
4946,barea,3200,fell,1842,42.38333,-2.5
16640,milena,10000,fell,1842,46.18333,16.1
5027,berdyansk,2250,found,1843,46.75,36.81667
5059,bishopville,6000,fell,1843,34.16667,-80.28333
12332,klein-wenden,3250,fell,1843,51.6,10.8
24135,utrecht,9700,fell,1843,52.11667,5.18333
24165,verkhne_tschirskaia,8000,fell,1843,48.41667,43.2
5451,cosina,1200,fell,1844,21.16667,-100.86667
10078,favars,1500,fell,1844,44.38333,2.81667
22779,ruff's_mountain,53070,found,1844,34.3,-81.4
4951,barratta,200000,found,1845,-35.3,144.56667
12748,le_pressoir,3000,fell,1845,47.16667,0.43333
2351,assam,2700,found,1846,26,92
5260,cape_girardeau,2300,fell,1846,37.26667,-89.58333
6637,deep_springs,11500,found,1846,36.5,-79.75
16726,monte_milone,3130,fell,1846,43.26667,13.35
16949,netschaëvo,250000,found,1846,54.23333,35.15
23460,schönenberg,8000,fell,1846,48.11667,10.46667
5133,braunau,39000,fell,1847,50.6,16.3
15424,marion_(iowa),28400,fell,1847,41.9,-91.6
16877,murfreesboro,8600,found,1847,35.83333,-86.41667
23474,seeläsgen,102000,found,1847,52.26667,15.55
23612,singhur,14180,found,1847,18.31667,73.91667
6699,dharwar,1800,fell,1848,14.88333,75.6
15429,marmande,3000,fell,1848,44.5,0.15
5343,chesterville,16500,found,1849,34.7,-81.2
16720,monroe,8600,fell,1849,35.25,-80.5
12286,kesen,135000,fell,1850,38.98333,141.61667
23113,salt_river,3600,found,1850,37.95,-85.78333
23461,schwetz,21500,found,1850,53.4,18.45
23498,seneca_falls,4000,found,1850,42.91667,-76.78333
23521,shalka,4000,fell,1850,23.1,87.3
24061,tucson,975000,found,1850,31.85,-110.96667
17959,nulles,5000,fell,1851,41.63333,0.75
5113,borkut,7000,fell,1852,48.15,24.28333
5181,bustee,1500,fell,1852,26.78333,82.83333
5363,chupaderos,24300000,found,1852,27,-105.1
15389,mainz,1700,found,1852,50,8.26667
16628,mezö-madaras,22700,fell,1852,46.5,25.73333
22643,rodeo,44000,found,1852,25.33333,-104.66667
30358,yatoor,13600,fell,1852,14.3,79.76667
10917,girgenti,18000,fell,1853,37.31667,13.56667
23476,segowlie,6930,fell,1853,26.75,84.78333
23891,tazewell,27000,found,1853,36.43333,-83.75
24122,union_county,6800,found,1853,34.75,-84
5463,cranbourne,8600000,found,1854,-38.1,145.3
7738,duel_hill_(1854),21800,found,1854,35.85,-82.7
14655,linum,1862,fell,1854,52.75,12.9
15381,madoc,168000,found,1854,44.5,-77.46667
23178,sarepta,14000,found,1854,48.48333,44.81667
24166,verkhne_udinsk,18000,found,1854,54.76667,113.98333
4950,barranca_blanca,12000,found,1855,-28.08333,-69.33333
5135,bremervörde,7250,fell,1855,53.4,9.1
16915,narraburra,32200,found,1855,-34.25,147.7
17989,oesel,6000,fell,1855,58.5,23
18023,orange_river_(iron),148800,found,1855,-30,25
18801,petersburg,1800,fell,1855,35.3,-86.63333
22792,sabetmahet,1250,fell,1855,27.43333,82.08333
6659,denton_county,5400,found,1856,33,-97
10167,fort_pierre,15900,found,1856,44.35,-100.38333
11473,hainholz,16500,found,1856,52.28333,8.91667
16942,nelson_county,73030,found,1856,37.75,-85.5
24046,trenzano,11800,fell,1856,45.46667,10
12218,kaba,3000,fell,1857,47.35,21.3
12741,laurens_county,2150,found,1857,34.5,-82.03333
14673,locust_grove,10000,found,1857,33.33333,-84.1
16694,mincy,89400,found,1857,36.55,-93.1
17995,ohaba,16250,fell,1857,46.06667,23.58333
18108,parnallee,77600,fell,1857,9.23333,78.35
22358,quenggouk,6045,fell,1857,17.76667,95.18333
23717,stavropol,1500,fell,1857,45.05,41.98333
4897,augusta_county,76000,found,1858,38.16667,-79.08333
4903,ausson,50000,fell,1858,43.08333,0.58333
12175,joel's_iron,1300,found,1858,-24,-69
16715,molina,144000,fell,1858,38.11667,-1.16667
24045,trenton,505000,found,1858,43.36667,-88.13333
24336,wooster,22700,found,1858,40.76667,-81.95
5034,beuste,2000,fell,1859,43.21667,-0.23333
18093,pampanga,10500,fell,1859,15.08333,120.7
24021,tombigbee_river,43000,found,1859,32.23333,-88.2
5379,cleveland,115000,found,1860,34.88333,-84.78333
5438,coopertown,16800,found,1860,36.43333,-87
7640,dhurmsala,32000,fell,1860,32.23333,76.46667
12399,la_grange,50800,found,1860,38.4,-85.36667
15433,marshall_county,6800,found,1860,37,-88.25
16953,new_concord,230000,fell,1860,40,-81.76667
24171,victoria_west,2950,found,1860,-31.7,23.75
5183,butsura,29000,fell,1861,27.08333,84.08333
11206,grosnaja,3500,fell,1861,43.66667,45.38333
14762,lutschaunig's_stone,100000,found,1861,-27,-70
24142,vaca_muerta,3828000,found,1861,-25.75,-70.5
12340,kokomo,1800,found,1862,40.48333,-86.36667
15485,menow,10500,fell,1862,53.18333,13.15
4919,bacubirito,22000000,found,1863,26.2,-107.83333
5178,buschhof,5000,fell,1863,46.45,25.78333
5442,copiapo,20000,found,1863,-27.3,-70.4
15402,manbhoom,1700,fell,1863,23.05,86.7
17976,obernkirchen,41000,found,1863,52.26667,9.1
18822,pillistfer,23250,fell,1863,58.66667,25.73333
22788,russel_gulch,13200,found,1863,39.8,-105.5
23085,st._francois_county,3600,found,1863,37.75,-90.5
23584,shytal,3200,fell,1863,24.33333,90.16667
23652,smith's_mountain,5000,found,1863,36.41667,-80
24022,tomhannock_creek,1500,found,1863,42.88333,-73.6
24038,tourinnes-la-grosse,14500,fell,1863,50.78333,4.76667
24194,wabar,2550000,found,1863,21.49972,50.47222
24199,wairarapa_valley,6000,found,1863,-41.31667,175.13333
7659,dolgovoli,1600,fell,1864,50.75,25.3
16945,nerft,10250,fell,1864,56.5,21.5
18026,orgueil,14000,fell,1864,43.88333,1.38333
23798,tamentit,510000,found,1864,27.71667,-0.25
4899,aumale,50000,fell,1865,36.16667,3.66667
7745,dundrum,2270,fell,1865,52.55,-8.03333
10948,gopalpur,1600,fell,1865,24.23333,89.05
16841,muddoor,4400,fell,1865,12.63333,77.01667
23530,shergotty,5000,fell,1865,24.55,84.83333
23760,supuhee,7235,fell,1865,26.71667,84.21667
24168,vernon_county,1500,fell,1865,43.5,-91.16667
4982,bear_creek,227000,found,1866,39.6,-105.3
5252,cangas_de_onis,34000,fell,1866,43.38333,-5.15
10176,frankfort_(iron),10900,found,1866,38.2,-84.83333
12211,juncal,104000,found,1866,-26,-69.25
12335,knyahinya,500000,fell,1866,48.9,22.4
23092,st._mesmin,8300,fell,1866,48.45,3.93333
23667,sone,17100,fell,1866,35.16667,135.33333
24104,udipi,3600,fell,1866,13.48333,74.78333
4894,auburn,3630,found,1867,32.63333,-85.5
5188,cacaria,41400,found,1867,24.5,-104.8
5285,casas_grandes,1545000,found,1867,30.4,-107.8
18045,otomi,6510,fell,1867,38.4,140.35
23466,scottsville,10000,found,1867,36.76667,-86.16667
23778,tadjera,9000,fell,1867,36.18333,5.41667
5513,daniel's_kuil,1064,fell,1868,-28.2,24.56667
5514,danville,2000,fell,1868,34.4,-87.06667
10938,goalpara,2700,found,1868,26.16667,90.6
14715,losttown,3000,found,1868,34.25,-84.5
16759,moti-ka-nagla,1500,fell,1868,26.83333,77.33333
16762,motta_di_conti,9150,fell,1868,45.2,8.5
16806,mount_vernon,159000,found,1868,36.93333,-87.4
18030,ornans,6000,fell,1868,47.11667,6.15
18805,pevensey,4300,found,1868,-34.78333,144.66667
18901,pultusk,250000,fell,1868,52.76667,21.26667
23123,san_francisco_del_mezquital,7500,found,1868,23.48333,-104.36667
23188,sauguis,4000,fell,1868,43.15,-0.85
23626,slavetic,1708,fell,1868,45.68333,15.6
2302,angra_dos_reis_(stone),1500,fell,1869,-22.96667,-44.31667
5263,caperr,113900,found,1869,-45.28333,-70.48333
11878,hessle,20000,fell,1869,59.85,17.66667
12047,iron_creek,175000,found,1869,53,-112
12284,kernouve,80000,fell,1869,48.11667,-3.08333
12353,krähenberg,16500,fell,1869,49.32694,7.46472
23535,shingle_springs,39000,found,1869,38.66667,-120.93333
23716,staunton,43500,found,1869,38.21667,-79.05
24011,tjabe,20000,fell,1869,-7.08333,111.53333
5185,cabezo_de_mayo,25000,fell,1870,37.98333,-1.16667
5366,cincinnati,1500,found,1870,39.11667,-84.5
11992,ibbenbüren,2000,fell,1870,52.28333,7.7
12022,ilimaes_(iron),51700,found,1870,-26,-70
15463,mckinney,150000,found,1870,33.18333,-96.71667
16935,nedagolla,4500,fell,1870,18.68333,83.48333
4935,bandong,11500,fell,1871,-6.91667,107.6
5479,cuba,1500,found,1871,22,-80
12045,iquique,12500,found,1871,-20.18333,-69.73333
12408,laborel,3833,fell,1871,44.28333,5.58333
23472,searsmont,5400,fell,1871,44.36667,-69.2
12455,lancé,51700,fell,1872,47.7,1.06667
16943,nenntmannsdorf,12500,found,1872,50.96667,13.95
18034,orvinio,3400,fell,1872,42.13333,12.93333
23160,santa_apolonia,1316000,found,1872,19.21667,-98.3
23898,tennasilm,28500,fell,1872,58.03333,26.95
462,aleppo,3200,fell,1873,36.23333,37.13333
5362,chulafinnee,16220,found,1873,33.5,-85.66667
7739,duel_hill_(1873),11300,found,1873,35.85,-82.7
12085,jhung,5900,fell,1873,31.3,72.38333
12288,khairpur,13600,fell,1873,29.53333,72.3
18095,paneth's_iron,150000,found,1873,0,0
23694,ssyromolotovo,217000,found,1873,58.61667,98.93333
24185,virba,3600,fell,1873,43.53333,22.63333
24195,waconda,50000,found,1873,39.33333,-98.16667
5182,butler,41000,found,1874,38.3,-94.36667
5190,cachiyuyal,2500,found,1874,-25,-69.5
5291,castalia,7300,fell,1874,36.08333,-78.06667
5432,coolac,19280,found,1874,-34.96667,148.125
12282,kerilis,5000,fell,1874,48.4,-3.3
23509,sevrukovo,101000,fell,1874,50.61667,36.6
5256,canyon_city,8600,found,1875,40.9,-123.1
11901,homestead,230000,fell,1875,41.8,-91.86667
15472,mejillones,14830,found,1875,-23.1,-70.5
16747,mornans,1300,fell,1875,44.6,5.13333
17001,north_chile,300000,found,1875,-23,-69
23162,santa_catharina,7000000,found,1875,-26.21667,-48.6
23503,serrania_de_varas,1500,found,1875,-24.55,-69.06667
23616,sitathali,1600,fell,1875,20.91667,82.58333
30351,yardea,3290,found,1875,-32.45,135.55
4915,babb's_mill_(blake's_iron),136000,found,1876,36.3,-82.88333
15408,mantos_blancos,10300,found,1876,-23.45,-70.11667
22773,rowton,3500,fell,1876,52.76667,-2.51667
23712,ställdalen,34000,fell,1876,59.93333,14.95
24154,vavilovka,1932,fell,1876,46.15,32.83333
5474,cronstad,3650,fell,1877,-27.7,27.3
5500,cynthiana,6000,fell,1877,38.4,-84.25
23661,soko-banja,80000,fell,1877,43.66667,21.86667
24215,warrenton,1600,fell,1877,38.68333,-91.15
5087,bluff_(a),153300,found,1878,29.87861,-96.87222
5511,dandapur,5650,fell,1878,26.91667,83.96667
15489,mern,4000,fell,1878,55.05,12.06667
22376,rakovka,9000,fell,1878,52.98333,37.03333
23989,tieschitz,28000,fell,1878,49.6,17.11667
5509,dalton,53000,found,1879,34.8,-84.98333
6656,densmore_(1879),37200,found,1879,39.65,-99.68333
10059,estherville,320000,fell,1879,43.41667,-94.83333
10936,gnadenfrei,1750,fell,1879,50.66667,16.76667
12056,itapicuru-mirim,2024,fell,1879,-3.4,-44.33333
12236,kalumbi,4500,fell,1879,17.83333,73.98333
12392,la_bécasse,2800,fell,1879,47.08333,1.75
14647,lick_creek,1240,found,1879,35.66667,-80.25
15392,makarewa,2300,found,1879,-46.31667,168.4
16989,nogoya,4000,fell,1879,-32.36667,-59.83333
23897,tenham,160000,fell,1879,-25.73333,142.95
2294,andhara,2700,fell,1880,26.58333,85.56667
5050,bingera,10841,found,1880,-29.88333,150.56667
5402,colfax,2300,found,1880,35.3,-81.73333
7761,eagle_station,36000,found,1880,38.61667,-84.96667
11194,greenbrier_county,5000,found,1880,37.83333,-80.31667
12062,ivanpah,58000,found,1880,35.33333,-115.31667
14644,lexington_county,4760,found,1880,34,-81.25
16844,muizenberg,4610,found,1880,-34.1,18.46667
24162,veramin,54000,fell,1880,35.33333,51.63333
24323,wittekrantz,2200,fell,1880,-32.5,23
380,admire,180000,found,1881,38.7,-96.1
5351,chilkoot,43000,found,1881,59.33333,-136
5453,costilla_peak,35500,found,1881,36.83333,-105.23333
11208,grossliebenthal,8000,fell,1881,46.35,30.58333
16632,middlesbrough,1600,fell,1881,54.56667,-1.16667
18068,pacula,3400,fell,1881,21.05,-99.3
23653,smithsonian_iron,3510,found,1881,0,0
23978,thunda,62100,found,1881,-25.7,143.05
24283,winburg,50000,found,1881,-28.5,27
5136,brenham,4300000,found,1882,37.5825,-99.16361
10836,fukutomi,11620,fell,1882,33.18333,130.2
11880,hex_river_mountains,60000,found,1882,-33.31667,19.61667
16709,mocs,300000,fell,1882,46.8,24.03333
18177,pavlovka,2000,fell,1882,52.03333,43
22389,rancho_de_la_pila_(1882),46500,found,1882,24.11667,-104.3
23121,san_cristobal,5000,found,1882,-23.43333,-69.5
466,alfianello,228000,fell,1883,45.26667,10.15
10057,estacado,290000,found,1883,33.9,-101.75
10955,grand_rapids,51700,found,1883,42.96667,-85.76667
12081,jenny's_creek,12000,found,1883,37.9,-82.38333
16966,ngawi,1393,fell,1883,-7.45,111.41667
23172,são_julião_de_moreira,162000,found,1883,41.76611,-8.58361
5319,chañaral,1207,found,1884,-26.5,-70.25
5448,corrizatillo,1328,found,1884,-26.03333,-70.33333
7652,djati-pengilon,166000,fell,1884,-7.5,111.5
10935,glorieta_mountain,148000,found,1884,35.6,-105.8
11813,hammond,24000,found,1884,44.91667,-92.43333
12174,joe_wright_mountain,42600,found,1884,35.76667,-91.5
12341,kokstad,341000,found,1884,-30.55,29.41667
15487,merceditas,42900,found,1884,-26.33333,-70.28333
18835,pirthalla,1161,fell,1884,29.58333,76
24094,tysnes_island,19860,fell,1884,60,5.61667
30374,youndegin,3800000,found,1884,-32.1,117.71667
5321,chandpur,1100,fell,1885,27.28333,79.05
12071,jamestown,4000,found,1885,46.61667,-98.5
14749,lucky_hill,20500,found,1885,17.9,-77.63333
15453,mazapil,4000,fell,1885,24.68333,-101.68333
18174,pavlodar_(pallasite),4500,found,1885,51.16667,77.33333
18903,puquios,6580,found,1885,-27.15,-69.91667
23872,tanokami_mountain,174000,found,1885,34.91667,135.96667
2353,assisi,2000,fell,1886,43.03333,12.55
5186,cabin_creek,48500,fell,1886,35.5,-93.5
12372,kulnine,55300,found,1886,-34.15,141.78333
12390,kyushu,45000,fell,1886,32.03333,130.63333
16902,nammianthal,4500,fell,1886,12.28333,79.2
17933,novo-urei,1900,fell,1886,54.81667,46
22369,rafrüti,18200,found,1886,47,7.83333
24025,tonganoxie,11800,found,1886,39.08333,-95.11667
470,algoma,4100,found,1887,44.65,-87.46667
5043,bielokrynitschie,1900,fell,1887,50.13333,27.16667
5277,carlton,81200,found,1887,31.91667,-98.03333
5461,crab_orchard,48500,found,1887,35.83333,-84.91667
11896,holland's_store,12200,found,1887,34.36667,-85.43333
12029,indian_valley,14100,found,1887,36.93333,-80.5
12032,indio_rico,15000,found,1887,-38.33333,-60.88333
12274,kendall_county,21000,found,1887,29.4,-98.5
16750,morristown,16300,found,1887,36.2,-83.38333
16779,mount_joy,384000,found,1887,39.78333,-77.21667
17979,ochansk,500000,fell,1887,57.78333,55.26667
18094,pan_de_azucar,19500,found,1887,-26.5,-69.5
18830,pipe_creek,13600,found,1887,29.68333,-98.91667
23122,san_emigdio,36000,found,1887,36,-119
23597,silver_crown,11600,found,1887,41.23333,-104.98333
24203,waldron_ridge,13600,found,1887,36.63333,-83.83333
5003,bella_roca,33000,found,1888,24.9,-105.4
5057,bischtübe,48250,found,1888,51.95,62.2
5458,cowra,5560,found,1888,-33.85,148.68333
10013,eli_elwah,15200,found,1888,-34.5,144.71667
11817,haniet-el-beguel,2000,found,1888,32.48333,4.4
12402,la_primitiva,27400,found,1888,-19.91667,-69.81667
14680,lonaconing,1400,found,1888,39.41667,-79.15
16693,minas_gerais,1224,found,1888,-18.5,-44
18833,pirapora,6175,found,1888,-17.3,-45
23086,st._genevieve_county,244500,found,1888,37.96667,-90.31667
23979,thurlow,5500,found,1888,44.75,-77.58333
24235,welland,8200,found,1888,43.01667,-79.21667
2317,apoala,85000,found,1889,17.7,-97
6697,dexter,1724,found,1889,33.81667,-97
10044,ergheo,20000,fell,1889,1.16667,44.16667
10915,gilgoin,147000,found,1889,-30.38333,147.2
11907,hopper,1800,found,1889,36.55,-79.78333
12048,iron_river,1420,found,1889,46.07944,-88.55972
12078,jelica,34000,fell,1889,43.83333,20.44167
12280,kenton_county,194000,found,1889,38.81667,-84.6
14755,lundsgård,11000,fell,1889,56.21667,13.03333
16634,mighei,8000,fell,1889,48.06667,30.96667
16710,moctezuma,1700,found,1889,29.8,-109.66667
24040,travis_county_(a),175400,found,1889,30.3,-97.7
24041,travis_county_(b),5900,found,1889,30.55556,-97.95278
4898,augustinovka,400000,found,1890,48.06667,35.08333
5077,blue_tier,1400,found,1890,-41.18333,148.03333
5139,bridgewater,13600,found,1890,35.71667,-81.86667
5403,collescipoli,5000,fell,1890,42.53333,12.61667
10074,farmington,89400,fell,1890,39.75,-97.03333
10119,forest_city,152000,fell,1890,43.25,-93.66667
10173,franceville,18800,found,1890,38.81667,-104.61667
11852,hassi-jekna,1250,fell,1890,28.95,0.81667
12087,jianshi,600000,fell,1890,30.80833,109.5
16703,misshof,5800,fell,1890,56.66667,23
16746,morland,295000,found,1890,39.33333,-100.06667
16894,nagy-vázsony,2000,found,1890,46.98333,17.7
22794,sacramento_mountains,237200,found,1890,32.91667,-104.66667
23087,st._germain-du-pinel,4000,fell,1890,48.01667,-1.15
23536,shirahagi,22700,found,1890,36.7,137.36667
24182,villedieu,14000,found,1890,47.91667,4.35
24248,western_arkansas,1750,found,1890,35,-94
4924,bald_eagle,3200,found,1891,41.28333,-77.05
5257,canyon_diablo,30000000,found,1891,35.05,-111.03333
10165,forsyth_county,22700,found,1891,36.1,-80.2
11440,guêa,1915,fell,1891,43.76667,20.23333
12027,indarch,27000,fell,1891,39.75,46.66667
12318,kingston,12900,found,1891,32.9,-107.73333
14694,long_island,564000,found,1891,39.93333,-99.6
23903,ternera,1980,found,1891,-27.33333,-69.8
24034,toubil_river,22000,found,1891,55.88333,89.1
4931,ballinoo,42200,found,1892,-27.7,115.76667
4936,bansur,15000,fell,1892,27.7,76.33333
4974,bath,21000,fell,1892,45.41667,-98.31667
5388,cobija,6530,found,1892,-22.56667,-70.25
6620,dayton,26300,found,1892,39.75,-84.16667
11439,guareña,39000,fell,1892,38.73333,-6.01667
16734,moonbi,13200,found,1892,-30.91667,151.28333
16748,morradal,2750,found,1892,62,7.66667
22644,roebourne,86860,found,1892,-22.33333,118
23174,saotome,10880,found,1892,36.5,137
4986,beaver_creek,14000,fell,1893,51.16667,-117.33333
7794,el_capitan,27500,found,1893,33.5,-105.5
12267,kaufman,23000,found,1893,32.58333,-96.41667
18032,oroville,24500,found,1893,39.68333,-121.63333
18796,persimmon_creek,5000,found,1893,35.05,-84.23333
18850,plymouth,14000,found,1893,41.33333,-86.31667
18882,prairie_dog_creek,2900,found,1893,39.63333,-100.5
23675,south_bend,2500,found,1893,41.65,-86.21667
30380,zabrodje,3000,fell,1893,55.18333,27.91667
2333,arlington,8940,found,1894,44.6,-94.1
5111,bori,8600,fell,1894,21.95,78.03333
5254,canton,7030,found,1894,34.2,-84.48333
10107,fisher,17600,fell,1894,47.81667,-96.85
11885,hildreth,3060,found,1894,40.33333,-99.03333
12083,jerome_(kansas),29600,found,1894,38.76667,-100.73333
16946,ness_county_(1894),82000,found,1894,38.5,-99.6
23116,sam's_valley,6920,found,1894,42.53333,-122.875
23190,savtschenskoje,2500,fell,1894,47.21667,29.86667
2290,ambapur_nagla,6400,fell,1895,27.66667,78.25
5060,bishunpur,1039,fell,1895,25.38333,82.6
16893,nagy-borové,6100,fell,1895,49.16667,19.5
16987,nocoleche,20000,found,1895,-29.86667,144.21667
17973,oakley_(stone),27700,found,1895,38.95,-101.01667
18035,oscuro_mountains,3600,found,1895,33.63333,-106.38333
22552,reed_city,20000,found,1895,43.86667,-85.51667
22640,rockhampton,1641,fell,1895,-23.38333,150.51667
2332,arispe,683000,found,1896,30.33333,-109.98333
5100,bolivia,21250,found,1896,0,0
5456,covert,61000,found,1896,39.2,-98.78333
12772,lesves,2000,fell,1896,50.36667,4.73333
14705,loreto,94800,found,1896,26.01667,-111.36667
14751,luis_lopez,7000,found,1896,34,-106.96667
22765,rosario,2700,found,1896,14.6,-88.68333
10851,gambat,6400,fell,1897,27.35,68.53333
12456,lancon,7000,fell,1897,43.75,5.11667
14709,los_reyes,19500,found,1897,19.26667,-97.28333
16872,mungindi,51300,found,1897,-28.93333,148.95
23117,san_angelo,88000,found,1897,31.41667,-100.35
30396,zavid,95000,fell,1897,44.4,19.11667
2283,alt_bela,4000,found,1898,49.76667,18.25
2295,andover,3200,fell,1898,44.61667,-70.75
2335,armanty,28000000,found,1898,47,88
5016,bendock,27000,found,1898,-37.15,148.91667
5304,cedartown,11300,found,1898,34.01667,-85.26667
12046,iredell,1500,found,1898,31.96667,-97.86667
12338,kodaikanal,15900,found,1898,10.26667,77.4
15435,mart,7140,found,1898,31.5,-96.88333
22360,quesa,10750,fell,1898,39,-0.66667
23590,sierra_gorda,26000,found,1898,-22.9,-69.35
24227,weaver_mountains,38800,found,1898,34.25,-112.75
2276,allegan,32000,fell,1899,42.53333,-85.88333
5064,bjurböle,330000,fell,1899,60.4,25.8
12024,illinois_gulch,2500,found,1899,46.68333,-112.55
12324,kissij,5500,found,1899,54.86667,50.88333
15386,magnesia,5000,fell,1899,37.86667,27.51667
16881,murphy,7700,found,1899,35.1,-84.03333
22550,red_willow,2750,found,1899,40.25,-100.5
23761,surprise_springs,1500,found,1899,34.16667,-115.91667
30412,zomba,7500,fell,1899,-15.18333,35.28333
465,alexandrovsky,9251,fell,1900,50.95,31.81667
5107,boogaldi,2000,found,1900,-31.15,149.11667
5303,cedar_(texas),26000,found,1900,29.82806,-96.90861
10081,felix,3200,fell,1900,32.53333,-87.16667
12249,kansas_university,2800,found,1900,0,0
12401,la_porte,14540,found,1900,41.6,-86.71667
16968,n'goureyma,37500,fell,1900,13.85,-4.38333
17990,ofehértó,3750,fell,1900,47.88333,22.03333
22594,rhine_villa,3325,found,1900,-34.66667,139.28333
2348,ashfork,27000,found,1901,35.25,-112.5
11873,hendersonville,6000,found,1901,35.31667,-81.46667
11989,hvittis,14000,fell,1901,61.18333,22.68333
18808,phillips_county_(stone),57900,fell,1901,40,-99.25
23109,saline,30800,found,1901,39.4,-100.4
23611,sindhri,8400,fell,1901,26.21667,69.55
4975,bath_furnace,86000,fell,1902,38.25,-83.75
5352,chinautla,5720,found,1902,14.5,-90.5
5477,crumlin,4255,fell,1902,54.61667,-6.21667
10103,finmarken,78300,found,1902,70,24
12241,kamsagar,1293,fell,1902,14.18333,75.8
15426,marjalahti,45000,fell,1902,61.5,30.5
16766,mount_browne,11300,fell,1902,-29.8,141.7
24157,veliko-nikolaevsky_priisk,24267,found,1902,53.83333,97.33333
24269,willamette,15500000,found,1902,45.36667,-122.58333
5047,billings,24500,found,1903,37.06667,-93.55
5497,cumpas,28600,found,1903,30,-109.66667
6615,davis_mountains,689000,found,1903,30.75,-104.25
7658,dokachi,3840,fell,1903,23.5,90.33333
12065,jackalsfontein,48000,fell,1903,-32.5,21.9
12248,kansas_city_(1903),36000,found,1903,39.1,-94.63333
12334,knowles,161000,found,1903,36.9,-100.21667
12352,kouga_mountains,1173000,found,1903,-33.61667,24
12454,lancaster_county,13000,found,1903,40.66667,-96.75
16772,mount_dyrring,11300,found,1903,-32.33333,151.2
18893,providence,6804,found,1903,38.56667,-85.23333
23090,st._mark's,13780,fell,1903,-32.01667,27.41667
23794,tamarugal,320000,found,1903,-20.8,-69.66667
23901,teocaltiche,10000,found,1903,21.43333,-102.56667
24013,tlacotepec,71000,found,1903,18.65,-97.55
24096,uberaba,40000,fell,1903,-19.81667,-48.78333
24138,uwet,54000,found,1903,5.28333,8.25
24145,valdinizza,1004,fell,1903,44.86667,9.15
30357,yarroweyah,9600,found,1903,-35.98333,145.58333
4921,bagnone,48000,found,1904,44.31667,9.98333
5318,chambord,6600,found,1904,48.45,-72.06667
6641,delegate,27700,found,1904,-37,149.03333
11450,gumoschnik,5700,fell,1904,42.9,24.7
14658,lipovsky,3500,found,1904,49.08333,42.51667
18000,okano,4742,fell,1904,35.08333,135.2
18894,puente_del_zacate,30790,found,1904,27.86667,-101.5
18896,puerta_de_arauco,1533,found,1904,-28.88333,-66.66667
23529,shelburne,18600,fell,1904,44.05,-80.16667
5041,bholghati,2500,fell,1905,22.08333,86.9
5436,coon_butte,2750,found,1905,35,-111
7813,el_perdido,30250,found,1905,-38.68333,-61.1
10020,ellerslie,10200,found,1905,-28.9,146.76667
10863,garraf,8800,found,1905,41.26667,1.91667
12262,karkh,22000,fell,1905,27.8,67.16667
12734,las_salinas,3515,found,1905,-23,-69.5
16711,modoc_(1905),35000,fell,1905,38.5,-101.1
23462,scott_city,2135,found,1905,38.46667,-100.93333
23623,skookum,16000,found,1905,63.91667,-139.33333
5068,blackwell,2381,fell,1906,36.83333,-97.33333
7737,duchesne,22700,found,1906,40.38333,-110.86667
10024,elm_creek,7000,found,1906,38.5,-96.2
12373,kulp,3719,fell,1906,41.11667,45
15413,marburg,3000,found,1906,50.81667,8.76667
16873,muonionalusta,230000,found,1906,67.8,23.1
18795,perryville,17500,found,1906,37.73333,-89.85
23486,selma,140600,found,1906,32.4,-87
24187,vishnupur,2437,fell,1906,23.1,87.43333
422,ainsworth,80650,found,1907,42.6,-99.8
5094,bodaibo,15900,found,1907,57.85,114.2
5315,chainpur,8200,fell,1907,25.85,83.48333
5377,cleburne,6800,found,1907,32.31667,-97.41667
11441,guffey,309000,found,1907,38.76667,-105.51667
11985,huizopa,140000,found,1907,28.9,-108.56667
16763,mount_ayliff,13600,found,1907,-30.81667,29.35
16993,norfolk,23000,found,1907,36.9,-76.3
23581,shrewsbury,12000,found,1907,39.76667,-76.66667
23604,simondium,1600,found,1907,-33.85,18.95
2334,arltunga,18100,found,1908,-23.33333,134.66667
4906,avce,1230,fell,1908,46,13.5
12227,kagarlyk,1900,fell,1908,49.86667,30.83333
12245,kangean,1630,fell,1908,-7,115.5
16713,mokoia,4500,fell,1908,-39.63333,174.4
17935,novy-projekt,1001,fell,1908,56,22
18078,palmersville,9979,found,1908,36.4665,-88.60283
22364,quinn_canyon,1450000,found,1908,38.08333,-115.53333
30356,yarri,1500,found,1908,-29.45,121.21667
419,ahumada,52600,found,1909,30.7,-105.5
5071,blanket,5100,fell,1909,31.83333,-98.83333
10914,gifu,14290,fell,1909,35.53333,136.88333
11451,gun_creek,22700,found,1909,34,-111
11849,haskell,36000,found,1909,33.21333,-99.73167
11877,hermitage_plains,32000,found,1909,-31.73333,146.4
16771,mount_dooling,734000,found,1909,-29.45,119.71667
16878,murnpeowie,1143000,found,1909,-29.58333,139.9
22397,rateldraai,549000,found,1909,-28.83333,21.13333
23902,teplá,17000,found,1909,49.98333,12.86667
4949,baroti,4500,fell,1910,31.61667,76.8
5075,blithfield,1830,found,1910,45.5,-77
5193,cadell,3290,found,1910,-34.06667,139.75
7717,dorofeevka,12600,found,1910,53.33333,70.06667
11848,hashima,1110.6,fell,1910,35.2945,136.70033
11870,hedjaz,6100,fell,1910,27.33333,35.66667
11988,huntsman,14500,found,1910,41.18333,-103
12298,khohar,9700,fell,1910,25.1,81.53333
16701,mirzapur,8510,fell,1910,25.68333,83.25
18869,pooposo,12000,found,1910,-18.33333,-66.83333
22596,rica_aventura,5395,found,1910,-21.98333,-69.61667
23093,st._michel,17000,fell,1910,61.65,27.2
23456,schaap-kooi,2700,found,1910,-32.08333,21.33333
23896,tendo,10100,found,1910,38.35,140.37333
24174,vigarano,15000,fell,1910,44.85,11.4
5478,cruz_del_aire,23000,found,1911,26.5,-100
5495,cullison,10000,found,1911,37.61667,-98.91667
6649,demina,16400,fell,1911,51.46667,84.76667
12283,kermichel,3000,found,1911,47.65,-2.76667
16852,mundrabilla,24000000,found,1911,-30.78333,127.55
16898,nakhla,10000,fell,1911,31.31667,30.35
17975,oberlin,2500,found,1911,39.8,-100.51667
24170,vicenice,4370,found,1911,49.21667,15.8
5049,binda,5400,found,1912,-34.31667,149.38333
5058,bishop_canyon,8600,found,1912,38,-108.5
5404,colomera,134000,found,1912,37.43333,-3.65
10114,floydada,12500,found,1912,33.98333,-101.28333
11201,gretna,82000,found,1912,39.93333,-99.21667
11894,holbrook,220000,fell,1912,34.9,-110.18333
16716,molong,104000,found,1912,-33.28333,148.88333
16983,n'kandhla,17200,fell,1912,-28.56667,30.7
23583,shupiyan,5000,fell,1912,33.71667,74.83333
5170,burkett,8400,found,1913,32.03333,-99.25
5353,chinga,209400,found,1913,51.05833,94.4
5431,cookeville,2300,found,1913,36.16667,-85.51667
5494,culbertson,5900,found,1913,40.23333,-100.83333
16736,moore_county,1880,fell,1913,35.41667,-79.38333
16773,mount_edith,326000,found,1913,-22.5,116.16667
18061,owens_valley,192800,found,1913,37.46667,-118
23103,sakauchi,4180,fell,1913,35.66667,136.3
24153,varpaisjärvi,2000,found,1913,63.3,27.73333
2318,appley_bridge,15000,fell,1914,53.58333,-2.71667
2341,artracoona,20810,found,1914,-29.06667,139.91667
5281,carraweena,31600,found,1914,-29.23333,139.93333
5466,cratheús_(1931),27500,found,1914,-5.25,-40.5
12259,karee_kloof,92100,found,1914,-31.6,25.8
12325,kisvarsány,1550,fell,1914,48.16667,22.30833
12345,kopjes_vlei,13600,found,1914,-29.3,21.15
12384,kuttippuram,45000,fell,1914,10.83333,76.03333
14760,lushton,6700,found,1914,40.74972,-97.74972
16741,morasko,290000,found,1914,52.46667,16.9
17970,nyirábrany,1100,fell,1914,47.55,22.025
18077,palinshih,18000,fell,1914,43.48333,118.61667
22791,ryechki,13000,fell,1914,51.13333,34.5
23101,saint-sauveur,14000,fell,1914,43.73333,1.38333
24276,willow_creek,51000,found,1914,43.46667,-106.76667
30347,yandama,5800,found,1914,-29.75,141.03333
30375,ysleta,140700,found,1914,31.65,-106.18333
455,albin_(pallasite),37600,found,1915,41.5,-104.1
10920,gladstone_(iron),736600,found,1915,-23.9,151.3
12023,ilinskaya_stanitza,5621,found,1915,51.23333,57.38333
15470,meester-cornelis,24750,fell,1915,-6.23333,106.88333
16913,naretha,5500,found,1915,-31,124.83333
22767,rosebud,54900,found,1915,30.81667,-97.05
23676,south_byron,6000,found,1915,43.03333,-78.03333
24137,uvalde,8200,found,1915,29.2,-99.76667
24198,waingaromia,9200,found,1915,-38.25,178.08333
2300,angelica,14800,found,1916,44.25,-88.25
2306,annaheim,13500,found,1916,52.33333,-104.86667
5098,boguslavka,256000,fell,1916,44.55,131.63333
5189,cachari,23500,found,1916,-36.4,-59.5
5200,calivo,2400,fell,1916,11.75,122.33333
14712,lost_creek,4018,found,1916,39.12417,-98.16778
16780,mount_magnet,16600,found,1916,-28.16667,118.5
18802,petropavlovka,1773,found,1916,48.2,43.73333
23606,sinai,1455,fell,1916,30.9,32.48333
23624,slaghek's_iron,1900,found,1916,0,0
23741,sultanpur,1710.5,fell,1916,25.93333,84.28333
24050,treysa,63000,fell,1916,50.91667,9.18333
5088,bluff_(b),16000,found,1917,29.86306,-96.92667
5395,colby_(wisconsin),104000,fell,1917,44.9,-90.28333
5465,cranganore,1460,fell,1917,10.2,76.26667
16903,nan_yang_pao,52900,fell,1917,35.66667,103.5
16951,new_almelo,8000,found,1917,39.66667,-100
18784,pei_xian,400000,found,1917,34.7,117
18819,pierceville_(iron),100000,found,1917,37.86667,-100.66667
18841,plainview_(1917),700000,found,1917,34.11667,-101.78333
23729,strathmore,13400,fell,1917,56.58333,-3.25
24054,troup,1020,fell,1917,32.16667,-95.1
24066,tulia_(a),86000,found,1917,34.61667,-101.95
24067,tulia_(b),4800,found,1917,34.53333,-101.7
24219,waterville,37125,found,1917,47.767778,-119.876389
30373,youanmi,118400,found,1917,-29.5,118.75
4940,barbacena,9026,found,1918,-21.21667,-43.93333
10926,glasatovo,152000,fell,1918,57.35,37.61667
12311,kimble_county,153800,found,1918,30.41667,-99.4
14677,logan,1315,found,1918,36.58333,-100.2
16994,norfork,1050,fell,1918,36.21667,-92.26667
17992,ogallala,3300,found,1918,41.16667,-101.66667
22599,richardton,90000,fell,1918,46.88333,-102.31667
23176,saratov,200000,fell,1918,52.55,46.55
24332,wood's_mountain,3867,found,1918,35.68333,-82.18333
30361,yenberrie,132000,found,1918,-14.25,132.01667
379,adhi_kot,4239,fell,1919,32.1,71.8
2310,anthony,20000,found,1919,37.08333,-98.05
5169,bur-gheluai,120000,fell,1919,5,48
5496,cumberland_falls,17000,fell,1919,36.83333,-84.35
12437,lake_brown,23400,found,1919,-31,118.5
18041,otchinjau,30000,found,1919,-16.5,14
22394,raoyang,4910,fell,1919,38.2,115.7
22585,rembang,10000,fell,1919,-6.73333,111.36667
23592,signal_mountain,63500,found,1919,32.5,-115.5
23665,somervell_county,11800,found,1919,32.18333,-97.8
30383,zaffra,3000,found,1919,35,-94.75
417,aguila_blanca,1440,fell,1920,-30.86667,-64.55
4883,atarra,1280,fell,1920,25.25417,80.625
5354,chinguetti,4050,found,1920,20.25,-12.68333
11890,hoba,60000000,found,1920,-19.58333,17.91667
12381,kushiike,4460,fell,1920,37.05,138.38333
15452,mayodan,15400,found,1920,36.38333,-79.86667
15492,merua,71400,fell,1920,25.48333,81.98333
16749,morrill,1387,found,1920,42.18333,-103.93333
23124,san_francisco_mountains,1700,found,1920,35,-112
23603,simmern,1222,fell,1920,49.98333,7.53333
24124,unter-mässing,80000,found,1920,49.09028,11.33333
24319,witchelina,3637,found,1920,-30,138
24341,wu-chu-mu-ch'in,68860,found,1920,45.5,118
5035,beyrout,1100,fell,1921,33.88333,35.5
7815,el_qoseir,2405,found,1921,26.28333,34.25
10178,franklin,9062,found,1921,36.71667,-86.56667
16688,milly_milly,26500,found,1921,-26.11667,116.66667
16926,navajo,2184000,found,1921,35.33333,-109.5
18837,pitts,3760,fell,1921,31.95,-83.51667
22766,rose_city,10600,fell,1921,44.51667,-83.95
23115,samelia,2462,fell,1921,25.66667,74.86667
23166,santa_luzia,1918000,found,1921,-16.26667,-47.95
23525,sharps,1265,fell,1921,37.83333,-76.7
23534,shikarpur,3679.7,fell,1921,25.85,87.5775
24060,tuan_tuc,13100,fell,1921,9.66667,105.66667
24105,uegit,252000,found,1921,3.81667,43.33333
24141,vaalbult,11800,found,1921,-29.75,22.5
7747,dungannon,13000,found,1922,36.85,-82.45
10027,elsinora,1797,found,1922,-29.45,143.6
10111,florence,3640,fell,1922,30.83333,-97.76667
10927,glasgow,20400,found,1922,37.01667,-85.91667
11869,hedeskoga,3500,fell,1922,55.46667,13.78333
15494,mesa_verde_park,3500,found,1922,37.16667,-108.5
16743,morden,2426,found,1922,-30.5,142.33333
16890,nagai,1810,fell,1922,38.12167,140.06167
16952,new_baltimore,20000,found,1922,40,-78.85
17985,odessa_(iron),1600000,found,1922,31.71667,-102.4
18817,piedade_do_bagre,59000,found,1922,-18.94167,-44.98333
23987,tieraco_creek,41700,found,1922,-26.33333,118.33333
24012,tjerebon,16500,fell,1922,-6.66667,106.58333
2277,allen,1407,found,1923,33.1,-96.7
2346,ashdon,1300,fell,1923,52.05,0.3
5266,carbo,454000,found,1923,29.66667,-111.5
5398,coldwater_(iron),18400,found,1923,37.26667,-99.33333
5506,dalgaranga,12200,found,1923,-27.71667,117.25
10945,goodland,3628,found,1923,39.35,-101.66667
11895,holetta,1415,fell,1923,9.06667,38.41667
16727,montferré,149000,fell,1923,43.39056,1.9625
16899,nakhon_pathom,23200,fell,1923,13.73333,100.08333
16962,newport,5600,found,1923,35.6,-91.26667
23189,savannah,60000,found,1923,35.16667,-88.18333
23499,seneca_township,11500,found,1923,41.78333,-84.18333
23502,serra_de_magé,1800,fell,1923,-8.38333,-36.76667
23591,sierra_sandon,6330,found,1923,-25.16667,-69.28333
24333,woodward_county,45500,found,1923,36.5,-99.5
369,achilles,16000,found,1924,39.77667,-100.81333
4994,beeler,11620,found,1924,38.53333,-100.21667
5028,béréba,18000,fell,1924,11.65,-3.65
5399,coldwater_(stone),16000,found,1924,37.26667,-99.33333
6665,dermbach,1500,found,1924,50.71667,10.11667
10123,forksville,6067,fell,1924,36.78333,-78.08333
10172,four_corners,25000,found,1924,37,-109.05
11922,huckitta,2300000,found,1924,-22.36667,135.76667
12198,johnstown,40300,fell,1924,40.35,-104.9
12395,la_colina,2000,fell,1924,-37.33333,-61.53333
12444,lake_labyrinth,25850,found,1924,-30.53333,134.75
16874,muraid,4703,fell,1924,24.5,90.21667
18013,olivenza,150000,fell,1924,38.71667,-7.06667
23165,santa_isabel,5500,fell,1924,-33.9,-61.7
23736,success,3500,fell,1924,36.48333,-90.66667
24230,weekeroo_station,94200,found,1924,-32.26667,139.86667
424,aïr,24000,fell,1925,19.08333,8.38333
5334,chaves,2945,fell,1925,41.93333,-7.46667
10019,ellemeet,1470,fell,1925,51.75,4
10933,glenormiston,40800,found,1925,-22.9,138.71667
12465,lanzenkirchen,7000,fell,1925,47.75,16.23333
16754,morven,7100,found,1925,-44.81667,171.13333
18021,opava,14300,found,1925,49.96667,17.9
18113,patos_de_minas_(hexahedrite),32000,found,1925,-18.58333,-46.53333
18114,patos_de_minas_(octahedrite),200000,found,1925,-18.58333,-46.53333
22357,queen's_mercy,7000,fell,1925,-30.11667,28.7
23156,sandia_mountains,45000,found,1925,35.25,-106.5
6662,deport,15000,found,1926,33.51667,-95.3
14721,lua,9241,fell,1926,24.95,75.15
17972,oakley_(iron),111000,found,1926,42.33333,-113.7
17997,ojuelos_altos,5850,fell,1926,38.18333,-5.4
17999,okahandja,6580,found,1926,-21.98333,16.93333
18182,peck's_spring,1600,found,1926,32,-102
24129,urasaki,1500,fell,1926,34.48333,133.28333
24226,weatherford,2000,found,1926,35.5,-98.7
4930,ballinger,1250,found,1927,31.76667,-99.98333
7651,dix,44000,found,1927,41.23333,-103.48333
11887,hinojal,50000,found,1927,-32.36667,-60.15
11984,hugoton,350000,found,1927,37.2,-101.35
17988,oesede,1400,fell,1927,52.28333,8.05
18827,pinnaroo,39400,found,1927,-35.38333,140.91667
23659,social_circle,99300,found,1927,33.7,-83.7
23998,tilden,74800,fell,1927,38.2,-89.68333
24101,udei_station,103000,fell,1927,7.95,8.08333
24110,ulysses,3900,found,1927,37.6,-101.25
24206,wallapai,430000,found,1927,35.8,-113.7
24217,washington_county,5750,found,1927,39.7,-103.16667
375,adams_county,5700,found,1928,39.96667,-103.76667
5454,cotesfield,1160,found,1928,41.36667,-98.63333
11888,hinojo,1155,found,1928,-36.86667,-60.16667
12053,isthilart,3050,fell,1928,-31.18333,-57.95
16908,naoki,17000,fell,1928,19.25,77
18029,orlovka,40500,found,1928,56,76.75
18828,piñon,17850,found,1928,32.66667,-105.1
23787,taicang,20000,found,1928,31.5,121.08333
24136,utzenstorf,3422,fell,1928,47.11667,7.55
24285,winona,24000,found,1928,35.2,-111.4
30368,york_(stone),1440,found,1928,40.86667,-97.6
4925,bald_mountain,3700,fell,1929,35.96667,-82.48333
4984,beardsley,16000,fell,1929,39.8,-101.2
5245,campbellsville,15400,found,1929,37.36667,-85.36667
5350,chihuahua_city,54000,found,1929,28.66667,-106.11667
10957,grant,525000,found,1929,35.16667,-107.88333
12297,khmelevka,6109,fell,1929,56.75,75.33333
12365,krzadka,2500,found,1929,50.375,21.73333
15473,mellenbye,1181.6,found,1929,-28.85,116.28333
18015,olmedilla_de_alarcón,40000,fell,1929,39.56667,-2.1
18066,ozona,127500,found,1929,30.73333,-101.3
18069,padvarninkai,3858,fell,1929,55.66667,25
22593,rewari,3332,fell,1929,28.2,76.66667
23887,tauk,6000,fell,1929,35.13333,44.45
398,aguada,1620,fell,1930,-31.6,-65.23333
5014,bencubbin,118000,found,1930,-30.75,117.78333
5112,boriskino,1342,fell,1930,54.23333,52.48333
5115,borrego,2126,found,1930,33.26667,-116.38333
11467,gyokukei,1320,fell,1930,35,127.5
12264,karoonda,41730,fell,1930,-35.08333,139.91667
12457,landes,69800,found,1930,38.9,-79.18333
14650,lillaverke,6862,fell,1930,56.65,15.86667
15456,mbosi,16000000,found,1930,-9.11667,33.06667
16630,miami,57700,found,1930,35.66667,-100.6
16645,miller_(arkansas),16700,fell,1930,35.4,-92.05
16738,moorleah,8887.5,fell,1930,-40.975,145.6
18009,oldenburg_(1930),16570,fell,1930,52.95,8.16667
18101,paragould,408000,fell,1930,36.06667,-90.5
18846,plantersville,2085,fell,1930,30.7,-96.11667
23893,tell,16600,found,1930,34.38333,-100.4
24139,uwharrie,72700,found,1930,35.51667,-79.96667
471,alikatnima,20000,found,1931,-23.33333,134.11667
4983,bear_lodge,48500,found,1931,44.5,-104.2
5158,bruno,13000,found,1931,52.26667,-105.35
5371,clareton,1050,found,1931,43.7,-104.7
11872,henbury,2000000,found,1931,-24.56667,133.16667
12040,ioka,31500,found,1931,40.25,-110.08333
12458,landor,9000,found,1931,-25.66667,117
18037,osseo,46300,found,1931,47.63333,-80.08333
18826,pine_river,3600,found,1931,44.21667,-89.1
23692,springwater,67600,found,1931,52,-108.3
23884,tatahouine,12000,fell,1931,32.95,10.41667
30377,yukan,4800,fell,1931,28.71667,116.61667
2286,altonah,21500,found,1932,40.56667,-110.48333
2329,archie,5070,fell,1932,38.5,-94.3
4939,baquedano,22000,found,1932,-23.3,-69.88333
5095,boerne,1100,found,1932,29.8,-98.8
5457,cowell,5717,found,1932,-33.3,136.01667
6636,deelfontein,28000,found,1932,-30.18333,23.26667
7723,douar_mghila,1161,fell,1932,32.33333,-6.3
11432,gualeguaychú,22000,fell,1932,-33,-58.61667
11434,guanghua,190000,found,1932,32.4,111.7
12289,khanpur,3698,fell,1932,25.55,83.11667
12299,khor_temiki,3200,fell,1932,16,36
12385,kuznetzovo,4047,fell,1932,55.2,75.33333
12386,kyancutta,32700,found,1932,-33.28333,136
12463,lanton,13780,found,1932,36.53333,-91.8
16992,nordheim,15150,found,1932,28.86667,-97.61667
18883,prambachkirchen,2125,fell,1932,48.3025,13.94083
24196,wagon_mound,87500,found,1932,35.84083,-104.58583
5179,bushman_land,3000,found,1933,-30,20
5316,chajari,18300,fell,1933,-30.78333,-58.05
5340,cherokee_springs,8400,fell,1933,35.03333,-81.88333
10951,grady_(1933),4230,found,1933,34.8,-103.31667
11844,harrisonville,46500,found,1933,38.65,-94.33333
11891,hobbs,2300,found,1933,32.73333,-103.1
11892,hobbs_(b),1600,found,1933,32.73333,-103.1
11900,holyoke,11200,found,1933,40.56667,-102.3
12400,la_lande,30000,found,1933,34.45,-104.13333
12446,lake_murray,270000,found,1933,34.1,-97
14698,loomis,3020,found,1933,40.46667,-99.5
15434,marsland,6850,found,1933,42.45,-103.3
15475,melrose_(a),36400,found,1933,34.38333,-103.61667
18110,pasamonte,5100,fell,1933,36.21667,-103.4
18798,pervomaisky,66000,fell,1933,56.63333,39.43333
18799,pesyanoe,3393,fell,1933,55.5,66.08333
18811,phum_sambo,7800,fell,1933,12,105.48333
22590,repeev_khutor,7000,fell,1933,48.6,45.66667
22774,roy_(1933),47200,found,1933,35.95,-104.2
23513,shafter_lake,3027,found,1933,32.4,-102.58333
23614,sioux_county,4100,fell,1933,42.58333,-103.66667
30399,zemaitkiemis,44100,fell,1933,55.3,25
2291,amber,4532,found,1934,35.16667,-97.88333
4922,bahjoi,10322,fell,1934,28.48333,78.5
5022,bennett_county,89000,found,1934,43.5,-101.25
5440,cope,12000,found,1934,39.66667,-102.83333
10075,farmville,56000,fell,1934,35.55,-77.53333
10079,fayetteville,2360,fell,1934,36.05,-94.16667
10932,glen_rose_(iron),11000,found,1934,32.25,-97.71667
11428,gruver,13100,found,1934,36.33333,-101.4
11472,hainaut,9000,fell,1934,50.31667,3.73333
12269,kearney,10000,found,1934,40.68333,-99.06667
15405,mangwendi,22300,fell,1934,-17.65,31.6
16920,nashville_(iron),18000,found,1934,35.96667,-77.96667
18099,para_de_minas,116300,found,1934,-19.86667,-44.61667
18105,park_city,12300,found,1934,0,0
22611,rio_negro,1310,fell,1934,-26.1,-49.8
22768,round_top_(a),9935,found,1934,30.05806,-96.65139
22775,roy_(1934),5619,found,1934,35.95,-104.2
23687,spearman,10400,found,1934,36.25,-101.21667
23785,taiban,25000,found,1934,34.45,-104.01667
24056,tryon,15900,found,1934,41.55,-100.96667
24234,weldona,27700,found,1934,40.35,-103.95
24271,willard_(b),12700,found,1934,34.5,-105.83333
5284,carver,94000,found,1935,32,-86
11850,hasparos,12880,found,1935,34,-105.5
14718,łowicz,59000,fell,1935,52,19.91667
15417,maria_elena_(1935),15500,found,1935,-22.33333,-69.66667
15457,mcaddo,1100,found,1935,33.75,-100.93333
16976,nikolaevka,3996,fell,1935,52.45,78.63333
17941,nullarbor_001,40000,found,1935,-31,132
18081,paloduro,3000,found,1935,34.9,-101.21667
18171,patwar,37350,fell,1935,23.15,91.18333
18793,perpeti,23474,fell,1935,23.325,91
18807,phillips_county_(pallasite),1360,found,1935,40.45,-102.38333
18824,pine_bluffs,2700,found,1935,41.18333,-104.06667
18848,pleasanton,2300,found,1935,38.18333,-94.71667
18910,quartz_mountain,4832,found,1935,37.2,-116.7
388,adrian,22600,found,1936,35.15,-102.71667
2339,arriba,31100,found,1936,39.3,-103.25
5287,cashion,5896.8,found,1936,35.84778,-97.70333
5324,channing,15300,found,1936,35.71667,-102.28333
5493,cuero,46500,found,1936,29.01667,-97.28333
10029,elton,1900,found,1936,33.71667,-100.83333
10073,farley,19400,found,1936,36.33333,-104.05
10921,gladstone_(stone),57300,found,1936,36.3,-104
10958,grant_county,2300,found,1936,37.46667,-101.43333
11995,ichkala,3973,fell,1936,58.2,82.93333
12265,karval,1104,found,1936,38.71667,-103.51667
14668,livingston_(montana),1600,found,1936,45.6,-110.58333
15372,macibini,1995,fell,1936,-28.83333,31.95
15428,marlow,68000,found,1936,34.6,-97.91667
16939,negrillos,28500,found,1936,-19.88333,-69.83333
16955,new_leipzig,20000,found,1936,46.36667,-101.95
18048,ouallen,5174,found,1936,24.16667,0.08333
18810,phulmari,4064,found,1936,20.13333,75.5
23135,sanderson,6800,found,1936,30.13333,-102.15
23497,seneca,1900,found,1936,39.83333,-96.06667
23522,shallowater,4650,found,1936,33.7,-101.93333
30378,yurtuk,1472,fell,1936,47.31667,35.36667
450,alamosa,1800,found,1937,37.46667,-105.86667
2326,arcadia,19400,found,1937,41.41667,-99.1
4995,beenham,44400,found,1937,36.21667,-103.65
5126,boxhole,500000,found,1937,-22.61667,135.2
5143,bristol,20000,found,1937,36.56667,-82.18333
5145,broken_bow,6800,found,1937,41.43333,-99.7
5151,brownfield_(1937),40960,found,1937,33.21667,-102.18333
5288,casilda,5250,found,1937,-33.1,-61.13333
5302,cedar_(kansas),4900,found,1937,39.7,-98.98333
5373,clark_county,11300,found,1937,38,-84.16667
5434,coolidge,4500,found,1937,38.03333,-101.98333
10048,erofeevka,1771.9,found,1937,51.86667,70.35
10076,farnum,4200,found,1937,40.25,-100.23333
10089,ferguson_switch,1700,found,1937,34,-101.5
10952,grady_(1937),9300,found,1937,34.8,-103.31667
11452,gundaring,112500,found,1937,-33.3,117.66667
11828,hardwick,7800,found,1937,43.8,-96.16667
11860,haviland_(a),1035,found,1937,37.61667,-99.1
12197,johnson_city,10400,found,1937,37.55,-101.68333
12217,kaalijarv,2250,found,1937,58.4,22.66667
12229,kainsaz,200000,fell,1937,55.43333,53.25
12253,kaptal-aryk,3500,fell,1937,42.45,73.36667
12273,kelly,44300,found,1937,40.46667,-103.03333
12375,kumerina,53500,found,1937,-24.91667,119.41667
12410,ladder_creek,35100,found,1937,38.61667,-101.63333
12448,laketon,3600,found,1937,35.56667,-100.66667
14654,lincoln_county,4500,found,1937,39.36667,-103.16667
14710,los_sauces,997000,found,1937,-29.41667,-66.85
16819,mrirt,79900,found,1937,33.13333,-5.56667
17931,novorybinskoe,3055,found,1937,51.88333,71.25
18783,peetz,11500,found,1937,40.95,-103.08333
18905,putinga,300000,fell,1937,-29.03333,-53.05
22392,rangala,3224.5,fell,1937,25.38333,72.01667
23468,scurry,118000,found,1937,32.5,-101
23526,shaw,17500,found,1937,39.53333,-103.33333
23649,smith_center,1585,found,1937,39.83333,-99.01667
23689,springfield,3200,found,1937,37.38333,-102.63333
23888,tauti,21000,fell,1937,46.71667,23.5
23906,texline,26200,found,1937,36.4,-103.01667
24202,waldo,1300,found,1937,39.1,-98.83333
24329,wonyulgunna,37800,found,1937,-24.91667,120.06667
30743,little_spring_creek,2950,found,1937,37.68333,-105.7
397,agua_blanca,49000,found,1938,-28.91667,-66.95
449,alamogordo,13600,found,1938,32.9,-105.93333
4886,atlanta,5500,found,1938,31.8,-92.75
4913,aztec,2830,fell,1938,36.8,-108
4953,bartlett,8590,found,1938,30.83333,-97.5
5021,benld,1770.5,fell,1938,39.08333,-89.15
5104,bonita_springs,41800,found,1938,26.26667,-81.75
5198,calico_rock,7275,found,1938,36.08333,-92.15
5300,cavour,26210,found,1938,44.221494,-98.059192
5335,chebankol,127760,found,1938,53.66667,88
7818,el_simbolar,40000,found,1938,-30.63333,-64.88333
10862,garnett,4788,found,1938,38.26667,-95.25
10947,goose_lake,1169500,found,1938,41.98,-120.54167
11841,harriman_(om),13000,found,1938,35.95,-84.56667
11914,howe,8630,found,1938,33.5,-96.6
12205,juarez,6100,found,1938,-37.55,-60.15
12368,kukschin,2250,fell,1938,51.15,31.7
14722,lubbock,1457.8,found,1938,33.6,-101.73333
16625,metsäkylä,1200,found,1938,60.65,27.06667
16718,monahans_(1938),27900,found,1938,31.48333,-102.88333
18098,pantar,2130,fell,1938,8.06667,124.28333
22393,ransom,15000,found,1938,38.61667,-99.93333
22651,romero,17200,found,1938,35.76667,-102.95
22786,rush_creek,9300,found,1938,38.61667,-102.71667
23157,sandtown,9350,found,1938,35.93333,-91.63333
23601,silverton_(texas),2576,found,1938,34.53333,-101.18333
23669,soper,3700,found,1938,34.03333,-95.58333
23674,south_african_railways,47000,found,1938,0,0
23886,tatum,1787,found,1938,33.23333,-103.44167
24268,wiley,3500,found,1938,38.15,-102.66667
24339,wray_(b),3884,found,1938,40.33083,-102.19583
30407,zhovtnevyi,107000,fell,1938,47.58333,37.25
45813,mukinbudin,8200,found,1938,-30.91667,118.2
2298,andura,17900,fell,1939,20.88333,76.86667
5101,bolshaya_korta,1593,found,1939,57.63333,83.36667
5180,bushnell,1240,found,1939,41.23333,-103.9
5342,chervony_kut,1700,fell,1939,50.83333,34
5417,concho,93500,found,1939,32,-101.5
5435,coomandook,5230,found,1939,-35.41667,139.75
7731,dresden_(ontario),47700,fell,1939,42.52,-82.26
7770,edmonton_(canada),7340,found,1939,53.66667,-113.41667
7776,ekeby,3336,fell,1939,56.03333,13
7793,el_burro,35900,found,1939,29.33333,-101.83333
10924,glanggang,1303,fell,1939,-7.25,107.7
11853,hat_creek,8900,found,1939,42.91667,-104.41667
12030,indianola,4000,found,1939,40.23333,-100.41667
12275,kendleton,6937,fell,1939,29.45,-96
12287,keyes,142000,found,1939,36.71667,-102.5
15410,mapleton,49000,found,1939,42.18333,-95.71667
15464,mclean,4300,found,1939,35.23333,-100.6
16921,nashville_(stone),25000,found,1939,37.45,-98.41667
18057,ovid,6169,found,1939,40.96667,-102.4
18820,pierceville_(stone),2125,found,1939,37.86667,-100.66667
22769,round_top_(b),7166,found,1939,30.06667,-96.7
23481,selakopi,1590,fell,1939,-7.23333,107.33333
23596,silver_bell,5100,found,1939,32.48333,-111.56667
23889,tawallah_valley,75750,found,1939,-15.7,135.66667
430,akron_(1940),1050,found,1940,40.15,-103.16667
2323,arapahoe,19083,found,1940,38.8,-102.2
4985,beaver,25628,found,1940,36.8,-100.53333
5040,bhola,1047,fell,1940,22.68333,90.65
5137,brewster,17000,found,1940,39.25,-101.33333
5142,briscoe,1773,found,1940,34.35,-101.4
5167,burdett,8600,found,1940,38.23333,-99.53333
5394,colby_(kansas),2400,found,1940,39.41667,-101.05
5414,comanche_(iron),19700,found,1940,32.01667,-98.7
5464,cranfills_gap,6000,found,1940,31.75,-97.75
6616,davy_(a),50600,found,1940,29.1,-97.6
6624,de_nova,12700,found,1940,39.85,-102.95
7756,dwight,4100,found,1940,38.85,-96.58333
10035,emsland,19000,found,1940,53.1,7.2
10110,fleming,1750,found,1940,40.68333,-102.81667
11908,horace,19700,found,1940,38.35,-101.78333
12270,kediri,3300,fell,1940,-7.75,112.01667
12453,lamont,38690,found,1940,38.07778,-96.02639
14657,linwood,46000,found,1940,41.43333,-96.96667
16708,moama,3416,found,1940,-35.95,144.51667
16991,norcateur,3200,found,1940,39.81667,-100.2
18044,otis,2600,found,1940,38.53333,-99.05
18107,parma_canyon,2150,found,1940,43.8,-117
22384,ramnagar,3766,fell,1940,26.45,82.9
23177,sardis,800000,found,1940,32.94889,-81.865
23511,seymour,25900,found,1940,37.2375,-92.78694
23651,smithonia,69900,found,1940,34,-83.16667
24237,wellman_(a),55000,found,1940,33.03333,-102.33333
24258,wickenburg_(stone),9200,found,1940,33.96667,-112.73333
7,abernathy,2914,found,1941,33.85,-101.8
5168,burgavli,24900,found,1941,66.4,137.46667
5317,chamberlin,2400,found,1941,36.2,-102.45
5507,dalgety_downs,257000,found,1941,-25.33333,116.18333
11826,harding_county,3075,found,1941,45.5,-103.5
11865,hayes_center,4500,found,1941,40.51667,-101.03333
15421,maridi,3200,fell,1941,4.66667,29.25
15488,mereta,1417.5,found,1941,31.42611,-100.13333
16774,mount_egerton,22000,found,1941,-24.76667,117.7
16961,new_westville,4800,found,1941,39.8,-84.81667
18812,phuoc-binh,11000,fell,1941,15.71667,108.1
18878,potter,261000,found,1941,41.23333,-103.3
23479,seibert_(a),3500,found,1941,39.3,-102.83333
23585,sidney,6000,found,1941,41.05,-102.9
23625,slaton,1070,found,1941,33.43333,-101.75
24161,vera,80000,found,1941,-29.91667,-60.28333
393,aggie_creek,43000,found,1942,64.88333,-163.16667
2304,ankober,6500,fell,1942,9.53333,39.71667
7645,dimmitt,200000,found,1942,34.58333,-102.16667
7771,edmonton_(kentucky),10200,found,1942,37.03333,-85.63333
7820,el_timbu,500000,found,1942,-33.11667,-60.96667
10120,forest_vale,26000,fell,1942,-33.35,146.85833
12238,kamalpur,2770,fell,1942,26.03333,81.46667
12251,kapoeta,11355,fell,1942,4.7,33.63333
15454,maziba,4975,fell,1942,-1.21667,30
16755,mosca,6220,found,1942,37.63333,-105.83333
16803,mount_sir_charles,22900,found,1942,-23.83333,134.03333
23119,san_carlos,3600,found,1942,-35.53333,-58.76667
23727,stonington,2700,found,1942,37.28333,-102.2
24148,valentine,2300,found,1942,42.93333,-100.75
4911,axtell,6200,found,1943,31.66,-96.97167
5007,belly_river,7900,found,1943,49.5,-113
5023,benoni,3880,fell,1943,-26.16667,28.41667
7754,duwun,2117,fell,1943,33.43333,127.26667
12755,leedey,51500,fell,1943,35.88333,-99.33333
12764,leon,30000,found,1943,37.66667,-96.76667
15490,mertzon,3720,found,1943,31.26667,-100.83333
16739,moorumbunna,77000,found,1943,-28.91667,136.25
7643,dimboola,16000,found,1944,-36.5,142.03333
7733,drum_mountains,529000,found,1944,39.5,-112.9
10857,garden_head,1296,found,1944,49.81667,-108.46
11479,hallingeberg,1456,fell,1944,57.81667,16.23333
16820,mtola,1100,fell,1944,-11.5,33.5
16910,nardoo_(no._1),3180,found,1944,-29.53333,143.98333
16911,nardoo_(no._2),1694,found,1944,-29.5,144.06667
18049,oubari,8000,found,1944,26.8,13.58333
24089,twentynine_palms,19700,found,1944,34.075,-116.01667
24109,ultuna,1900,found,1944,59.81667,17.66667
24144,valdavur,2799,fell,1944,11.98333,79.75
24280,wilmot,2000,found,1944,37.38333,-96.86667
4888,atoka,1384.2,fell,1945,34.31667,-96.15
11843,harrison_township,3263,found,1945,38.33333,-101.71167
12052,isoulane-n-amahar,72000,found,1945,27.12917,8.66722
12413,laguna_manantiales,92000,found,1945,-48.58333,-67.41667
15491,meru,6000,fell,1945,0,37.66667
16996,norquín,19250,found,1945,-37.71667,-70.61667
23671,soroti,2050,fell,1945,1.7,33.63333
24033,tostado,22000,found,1945,-29.23333,-61.76667
24343,wynella,40000,found,1945,-28.95,148.13333
52412,fuhe,23000,fell,1945,31.47556,113.56694
5078,bluewater,9540,found,1946,35.26667,-107.96667
5177,bursa,25000,fell,1946,40.2,29.23333
5391,cockburn,2460,found,1946,-32.13333,141.03333
12080,jenkins,55400,found,1946,36.82444,-93.76111
12320,kinsella,3720,found,1946,53.2,-111.43333
12357,krasnyi_klyuch,4000,fell,1946,54.33333,56.08333
12364,krymka,50000,fell,1946,47.83333,30.76667
18786,peña_blanca_spring,70000,fell,1946,30.125,-103.11667
24210,walters,28100,fell,1946,34.33333,-98.3
30376,yudoma,7600,found,1946,60,140
55546,binneringie,9056,found,1946,-31.4875,122.12389
371,acme,75000,found,1947,33.63333,-104.26667
2293,amherst,8500,found,1947,40.8,-99.2
5289,casimiro_de_abreu,25000,found,1947,-22.46667,-42.21667
7760,eagle,10000,fell,1947,40.78167,-96.47167
11840,harriman_(of),30000,found,1947,35.95,-84.56667
11886,hill_city,11700,found,1947,39.36667,-99.85
12234,kalkaska,9399,found,1947,44.64694,-85.13667
12461,långhalsen,2300,fell,1947,58.85,16.73333
14720,loyola,2077,found,1947,0,0
18788,penokee,3580,found,1947,39.35,-99.91667
18866,pony_creek,4642,found,1947,31.66333,-99.95
22584,reliegos,17300,fell,1947,42.475,-5.33333
23134,sand_draw,1200,found,1947,40.81667,-102.25
23593,sikhote-alin,23000000,fell,1947,46.16,134.65333
24326,wolf_creek,760000,found,1947,-19.3,127.76667
5096,bogoslovka,2180,found,1948,52.5,68.8
7720,dorrigo,8500,found,1948,-30.28333,152.66667
7740,duketon,118300,found,1948,-27.5,122.36667
10022,ellis_county,4692,found,1948,38.78333,-99.33333
10843,gail,4650,found,1948,32.7,-101.6
12302,kielpa,13600,found,1948,-33.6,136.1
15414,mardan,4500,fell,1948,34.23333,72.08333
16712,modoc_(1948),1800,found,1948,38.5,-101.1
16938,neenach,13800,found,1948,34.8,-118.5
17922,norton_county,1100000,fell,1948,39.68333,-99.86667
22605,rifle,102700,found,1948,38.51667,-107.83333
22785,rush_county,4300,found,1948,39.5,-85.5
24140,uzcudun,20000,fell,1948,-44.11667,-66.15
24211,waltman,23410,found,1948,43,-107.16667
456,albin_(stone),15400,found,1949,41.41667,-104.1
2281,almelo_township,3180,found,1949,39.6,-100.11667
5026,benton,2840,fell,1949,45.95,-67.55
5141,briggsdale,2230,found,1949,40.66667,-104.31667
5392,cocklebiddy,19500,found,1949,-31.93333,126.21667
5503,dadin,27300,found,1949,-38.91667,-69.2
7644,dimitrovgrad,100000,found,1949,43.04639,22.86389
12377,kunashak,200000,fell,1949,55.78333,61.36667
16627,mezel,1300,fell,1949,45.76667,3.25
16704,mission,12000,found,1949,43.31667,-100.76667
22783,rupota,6000,fell,1949,-10.26667,38.76667
23485,seligman,2200,found,1949,35.28333,-112.86667
24348,xiquipilco_no._2,1124,found,1949,0,0
2340,arroyo_aguiar,7450,fell,1950,-31.41667,-60.66667
4955,barwise,10400,found,1950,34,-101.5
5004,belle_plaine,78800,found,1950,37.31667,-97.25
5381,clinton,7700,found,1950,36.08333,-84.2
6657,densmore_(1950),11300,found,1950,39.56583,-99.64722
10842,gahanna,1201,found,1950,40.01667,-82.86667
11814,hammond_downs,27000,found,1950,-25.46667,142.8
11858,haven,6100,found,1950,37.96417,-97.75583
12271,keen_mountain,6690,found,1950,37.21667,-82
12317,kingfisher,8180,found,1950,35.83333,-97.93333
12367,kuga,5600,found,1950,34.1,132.08333
15477,melvern_lake,7746,found,1950,38.525,-95.78056
16725,monte_das_fortes,4885,fell,1950,38.01667,-8.25
16882,murray,12600,fell,1950,36.6,-88.1
18116,patrimonio,2121,fell,1950,-19.53333,-48.56667
18842,plainview_(1950),2200,found,1950,34.11667,-101.78333
23168,santa_rosalia,1631,found,1950,27.33333,-112.33333
23797,tambo_quemado,141000,found,1950,-14.66667,-74.5
24158,vengerovo,10800,fell,1950,56.13333,77.26667
24320,withrow,8732,found,1950,47.70667,-119.83
56575,sterley,1724.8,found,1950,34.21,-101.39
5,abbott,21100,found,1951,36.3,-104.28333
5025,benthullen,17000,found,1951,53.05,8.1
5347,chico_hills,8030,found,1951,36,-104.5
7736,dubrovnik,1900,fell,1951,42.45833,18.44167
7824,elenovka,54640,fell,1951,47.83333,37.66667
10054,esquel,755000,found,1951,-42.9,-71.33333
11471,haig,503000,found,1951,-31.38333,125.63333
11879,hesston,12900,found,1951,38.11667,-97.43333
12358,kress_(a),12500,found,1951,34.35833,-101.73
15409,manych,3555,fell,1951,45.81667,44.63333
22601,richland,50600,found,1951,31.9,-96.4
24279,willowdale,3000,found,1951,37.53333,-98.36667
6,abee,107000,fell,1952,54.21667,-113
389,adzhi-bogdo_(iron),582000,found,1952,44.86667,95.41667
4905,avanhandava,9330,fell,1952,-21.46028,-49.95083
10071,faith,105000,found,1952,45.33333,-102.08333
10168,fort_stockton,4762.8,found,1952,30.91667,-103.06667
12330,klamath_falls,17000,found,1952,42.16667,-121.85
16697,min-fan-zhun,5500,fell,1952,32.33333,120.66667
18067,ozren,3900,found,1952,44.6125,18.41806
18814,picacho,22000,found,1952,33.2,-105
23735,sublette,1300,found,1952,37.5,-100.83333
24173,view_hill,33600,found,1952,-43.32,172.06333
47729,el-oued,2305,found,1952,31.533333,8.883333
7730,dresden_(kansas),6760,found,1953,39.61667,-100.46306
14679,lombard,7000,found,1953,46.1,-111.4
22763,roper_river,6400,found,1953,-15,135
24085,turtle_river,22390,found,1953,47.6,-94.76667
24159,ventura,7700,found,1953,34.25,-119.3
24330,woodbine,48200,found,1953,42.34667,-90.1675
5346,chico,104800,found,1954,36.5,-104.2
5384,clover_springs,7700,found,1954,34.45,-111.36667
10108,flagg,7000,found,1954,34.43333,-102.51667
10911,ghubara,1750000,found,1954,19.22778,56.14278
10918,giroux,4275,found,1954,49.61667,-96.55
12049,ishinga,1300,fell,1954,-8.93333,33.8
12082,jerome_(idaho),6800,found,1954,42.63333,-114.83333
15407,manlai,166800,found,1954,44.33333,106.5
16977,nikolskoe,6000,fell,1954,56.11667,37.33333
18080,palo_blanco_creek,1482,found,1954,36.5,-104.5
18829,pinto_mountains,17900,found,1954,34,-115.78333
23773,sylacauga,5560,fell,1954,33.18836,-86.2945
23879,tarfa,1040,found,1954,19.5,55.5
24113,umbarger,13000,found,1954,34.95,-102.1175
30348,yangchiang,20000,fell,1954,21.83333,111.83333
48959,palmas_de_monte_alto,97000,found,1954,-14.3675,-43.02278
473,al-jimshan,11450,found,1955,20.7,52.83333
4882,aswan,12000,found,1955,23.98611,32.62361
5006,bellsbank,38000,found,1955,-28.08333,24.08333
7712,dora_(pallasite),7600,found,1955,33.92667,-103.955
7768,edmonson_(a),12000,found,1955,34.28333,-101.83333
11200,gressk,303000,found,1955,53.23333,27.33333
11905,hope,6800,found,1955,33.68333,-93.6
12263,karloowala,2950,fell,1955,31.58333,71.6
12450,lakewood,46500,found,1955,32.62972,-104.35
15425,marion_(kansas),2890,found,1955,38.36667,-97.03333
15448,mayday,6900,found,1955,39.47444,-96.925
15495,messina,2405,fell,1955,38.18333,15.56667
23977,thule,48600,found,1955,76.53333,-67.55
24090,twin_city,5130,found,1955,32.58333,-82.01667
24236,wellington,13400,found,1955,34.95,-100.25
30400,zenda,3700,found,1955,42.51333,-88.48944
30415,zvonkov,2568,fell,1955,50.2,30.25
5103,bondoc,888600,found,1956,13.51667,122.45
5134,breitscheid,1500,fell,1956,50.66694,8.18361
5415,comanche_(stone),2400,found,1956,31.99167,-98.65167
6658,densmore_(c),3900,found,1956,0,0
7741,dumas_(a),46050,found,1956,35.9,-101.9
12000,idutywa,3457,fell,1956,-32.1,28.33333
12233,kaldoonera_hill,12000,found,1956,-32.61667,134.85
12388,kybunga,7900,found,1956,-33.9,138.48333
12405,la_villa,19800,found,1956,26.27167,-97.90167
12443,lake_grace,10500,found,1956,-33.06667,118.21667
16889,nadiabondi,8165,fell,1956,12,1
18103,paranaiba,100000,fell,1956,-19.13333,-51.66667
18855,point_of_rocks_(iron),18000,found,1956,36.5,-104.5
23613,sinnai,2000,fell,1956,39.3,9.2
23799,tamir-tsetserleg,173000,found,1956,47.45,101.47917
23983,tianlin,300000,found,1956,24.3,106.1
24208,walltown,1600,found,1956,37.325,-84.71667
31354,zerkaly,16000,found,1956,52.13333,81.96667
52413,nicolás_levalle,60000,found,1956,-38.85028,-62.87889
10121,forestburg_(a),26100,found,1957,33.50667,-97.65139
10122,forestburg_(b),26600,found,1957,33.49556,-97.58861
11993,ibitira,2500,fell,1957,-20,-45
11999,ider,140000,found,1957,34.68333,-85.65
12089,jiddat_al_harasis,1400,found,1957,19.25,56.06667
22368,raco,5000,fell,1957,-26.66667,-65.45
23094,st._peter,6800,found,1957,39.4,-100.03333
23523,shangdu,247000,found,1957,42.5,114
23677,south_dahna,275000,found,1957,22.56667,48.3
23762,susuman,18900,found,1957,62.72139,148.13028
30371,yorktown_(texas),3500,found,1957,28.95,-97.40278
5008,belmont,25300,found,1958,42.73333,-90.35
5061,bison,11000,found,1958,38.30667,-99.71
5201,calliham,40000,found,1958,28.41667,-98.25
11476,hajmah_(c),1132,found,1958,19.91667,56.25
16906,nantan,9500000,found,1958,25.1,107.7
22386,ramsdorf,4682,fell,1958,51.88333,6.93333
23169,santiago_papasquiero,119500,found,1958,24.5,-106
23664,sombrerete,10000,found,1958,23.63333,-103.66667
44709,crow_peak,6320,found,1958,44.47733,-103.972
432,akwanga,3000,fell,1959,8.91667,8.43333
452,alatage,37500,found,1959,42.33333,93
467,algarrobo,1280,found,1959,-27.08333,-70.58333
4920,bagdad,2200,found,1959,34.613317,-113.398967
5305,cee_vee,3600,found,1959,34.2,-100.48333
10012,elga,28800,found,1959,64.7,141.2
11485,hamlet,3710,fell,1959,41.38333,-86.6
14645,liangcheng,200000,found,1959,40.5,112.5
14660,lismore,10000,found,1959,-35.95,143.33333
18887,pribram,5555,fell,1959,49.66667,14.03333
23894,temple,5000,found,1959,31.11667,-97.3
30352,yardymly,150200,fell,1959,38.93333,48.25
469,al-ghanim_(stone),3755,found,1960,19.7,53.96667
2337,arrabury,5300,found,1960,-26.5,141.08333
2354,as-su'aydan,5855,found,1960,21.25417,55.305
5154,brownfield_(iron),1626,found,1960,33.21667,-102.18333
5156,bruderheim,303000,fell,1960,53.9,-112.88333
5378,cleo_springs,24000,found,1960,36.43333,-98.43333
6622,de_hoek,20930,found,1960,-29.38333,23.1
10021,ellicott,15700,found,1960,38.80778,-104.56944
12059,itutinga,3200,found,1960,-21.33333,-44.66667
16643,millbillillie,330000,fell,1960,-26.45,120.36667
16842,muenatauray,30000,found,1960,4.9,-61.2
17986,odessa_(stone),1926,found,1960,46.5,30.76667
22598,richa,1500,found,1960,10,9
23170,são_joão_nepomuceno,15300,found,1960,-21.55,-43.01667
23484,selden,1560,found,1960,39.53333,-100.56667
24160,venus,1013,found,1960,32.4,-97.08333
24334,woolgorong,36000,fell,1960,-27.75,115.83333
31330,stoneham,5000,found,1960,40.63783,-103.69717
55758,watonga,5025,found,1960,35.833333,-98.4
376,ad-dahbubah,90000,found,1961,19.83333,51.25
431,akron_(1961),4000,found,1961,40.15,-103.16667
2307,anoka,1108,found,1961,45.2,-93.43333
4973,batesland,2500,found,1961,43.13333,-102.1
5197,caldwell,12900,found,1961,37.03333,-97.625
5258,canyonlands,1520,found,1961,38.18333,-109.88333
5385,clovis_(no._1),283000,found,1961,34.3,-103.13472
7656,djermaia,3950,fell,1961,12.73333,15.05
7744,duncanville,17800,found,1961,32.63333,-96.86667
7774,ehole,2400,fell,1961,-17.3,15.83333
10064,eunice,2300,found,1961,34.47,-101.75833
11830,harleton,8360,fell,1961,32.675,-94.51167
12261,kargapole,21800,found,1961,55.88333,64.3
12268,kayakent,85000,fell,1961,39.26333,31.78
12279,kennard,8200,found,1961,41.48333,-96.16667
12436,lake_bonney,2750,found,1961,-37.75,140.3
12745,lazarev,10000,found,1961,-71.95,11.5
12766,leoville,8100,found,1961,39.63333,-100.46722
22595,rhineland,6240,found,1961,33.53333,-99.61667
23488,seminole,43900,found,1961,32.68333,-102.61667
23770,sweetwater,1760,found,1961,32.55,-100.41667
372,acomita,3956,found,1962,35.05,-107.56667
4927,balfour_downs,2400,found,1962,-22.75,120.83333
5097,bogou,8800,fell,1962,12.5,0.7
5124,bowesmont,2270,found,1962,48.68333,-97.16667
5161,budulan,100000,found,1962,50.56667,114.9
5380,clifford,11360,found,1962,39.1,-103.25833
5437,coonana,6800,found,1962,-29.85,140.7
6693,desuri,25400,fell,1962,25.73333,73.61667
7722,dosso,1250,fell,1962,13.05,3.16667
7772,efremovka,21000,found,1962,52.5,77
10031,emery,16700,found,1962,43.56333,-97.58333
10104,finney,10700,found,1962,34.26667,-101.56667
11987,hunter,74600,found,1962,36.56,-97.66667
14702,loop,5600,found,1962,32.9,-102.28333
15406,manitouwabing,39000,found,1962,45.44,-79.87556
16936,needles,45300,found,1962,34.44417,-114.8325
22772,rowena,34700,found,1962,-29.8,148.63333
23099,ste._marguerite,4960,fell,1962,50.76667,3
23469,seagraves,13000,found,1962,32.93333,-102.58333
23533,shields,9780,found,1962,38.7,-100.35
23627,sleeper_camp_001,1250,found,1962,-30.25,126.33333
23647,slovak,8220,found,1962,34.65,-91.58333
23911,thiel_mountains,31700,found,1962,-85.45,-90
24035,toulon,1214.5,found,1962,41.11667,-89.80833
24091,two_buttes_(a),19700,found,1962,37.63333,-102.41667
24150,valkeala,4000,found,1962,61.05,26.83333
24192,vulcan,19000,found,1962,50.51667,-113.13333
24275,williston,7645,found,1962,47.98333,-103.65
30386,zagami,18000,fell,1962,11.73333,7.08333
4891,atwood,2100,found,1963,40.51667,-103.26667
5278,carnegie,132700,found,1963,35.16667,-98.64389
5386,clovis_(no._2),41300,found,1963,34.3,-103.13333
10181,fremont_butte,6647,found,1963,38.5,-105.5
11851,hassayampa,16000,found,1963,33.75,-112.66667
12037,inner_mongolia,3000,fell,1963,41,112
12200,jonah,1304,found,1963,30.625,-97.53333
12258,karatu,2220,fell,1963,-3.5,35.58333
12432,lahoma,21800,found,1963,36.38333,-98.08333
16757,mosquero,1800,found,1963,35.75,-103.93333
16845,mulberry_draw,9716,found,1963,35.63333,-100.13333
17996,ohuma,7700,fell,1963,6.75,8.5
18180,peace_river,45760,fell,1963,56.13333,-117.93333
23110,salla,7000,found,1963,66.8,28.45
23793,talpa,13000,found,1963,31.86667,-99.58333
24014,tobe,5386,found,1963,37.2,-103.58333
24132,usti_nad_orlici,1269,fell,1963,49.975,16.375
24200,waka,11875,found,1963,36.15,-101.05
24212,warburton_range,56930,found,1963,-26.28333,126.66667
5152,brownfield_(1964),4100,found,1964,33.21667,-102.18333
5163,bulls_run,2250,fell,1964,0,0
5250,çanakkale,4000,fell,1964,39.8,26.6
5323,changxing,27900,found,1964,31.33333,121.66667
5339,chernyi_bor,6000,fell,1964,53.7,30.1
5375,claytonville,15600,found,1964,34.34667,-101.49
5446,corowa,11340,found,1964,-36,146.36667
10182,frenchman_bay,8800,found,1964,-30.60833,115.16667
10956,granes,9000,fell,1964,42.9,2.25
10959,grassland,4400,found,1964,33.11667,-101.58333
12257,karasburg,12000,found,1964,-27.66667,18.96667
14703,loop_(b),1600,found,1964,32.99167,-102.38833
15449,mayerthorpe,12610,found,1964,53.775,-115.03333
16785,mount_padbury,272000,found,1964,-25.66667,118.1
16847,mulga_(north),19900,found,1964,-30.18333,126.36667
16884,muslyumovo,10580,found,1964,55.3,53.2
16885,muzaffarpur,1245,fell,1964,26.13333,85.53333
16944,neptune_mountains,1070,found,1964,-83.25,-55
18839,plains,34300,found,1964,33.28333,-102.76667
23179,sargiin_gobi,17500,found,1964,45.9835,105.75883
23763,sutton,7600,found,1964,40.6,-97.86667
24239,wellman_(c),45000,found,1964,33.03333,-102.33333
30363,yingde,3000000,found,1964,24.2,113.4
2311,anton,41800,found,1965,33.7825,-102.18111
4954,barwell,44000,fell,1965,52.56528,-1.33972
5092,bocaiuva,64000,found,1965,-17.16667,-43.83333
5173,burnabbie,2515,found,1965,-32.05,126.16667
5298,catherwood,3920,found,1965,51.965,-107.43833
5418,conquista,20350,fell,1965,-19.85,-47.55
6639,del_rio,3596,found,1965,29.36667,-100.96667
10045,erie,3300,found,1965,40.03167,-105.05667
10062,etter,450000,found,1965,35.98333,-101.9
10066,eva,6700,found,1965,36.81667,-101.90833
10090,ferintosh,2201,found,1965,52.8,-112.98333
11484,hamilton_(texas),2700,found,1965,31.59333,-98.25
11867,hebron,21820,found,1965,40.16667,-97.6
12223,kaffir_(a),1874.9,found,1965,34.62333,-101.91667
12319,kinley,2000,found,1965,52.04667,-107.23333
12389,kyle,7780,found,1965,29.975,-97.86667
14666,little_river_(b),11700,found,1965,38.44,-98.06667
14682,lone_star,4300,found,1965,34.25972,-101.40833
15459,mccook,3602,found,1965,40.02,-100.78333
16731,monturaqui,2000,found,1965,-23.93333,-68.28333
16735,moorabie,14040,found,1965,-30.01667,141.06667
16997,norristown,4200,found,1965,32.51667,-82.55
18877,post,2000,found,1965,33.11667,-101.38333
23088,st._lawrence,2600,found,1965,31.73333,-101.505
23489,seminole_(b),1184,found,1965,32.54333,-102.705
23507,severny_kolchim,1390,found,1965,60.5,57
23688,springer,8143,found,1965,36.34611,-97.185
23873,taonan,3850,fell,1965,45.4,122.9
23980,thurman,1959,found,1965,39.52167,-103.16667
24010,tishomingo,260000,found,1965,34.25,-96.68333
24163,verissimo,14000,found,1965,-19.73333,-48.31667
24207,wallareenya,4386,found,1965,-20.66667,118.83333
55760,new_york,2950,found,1965,0,0
457,albion,12280,found,1966,46.83333,-117.25
4909,avoca_(western_australia),37850,found,1966,-30.85,122.31667
7821,elba,4175,found,1966,39.83333,-103.21667
10077,faucett,100000,found,1966,39.61667,-94.86667
10113,floyd,13000,found,1966,34.19333,-103.575
11483,hamilton_(queensland),68000,found,1966,-28.48333,148.25
12036,inman,7250,found,1966,38.25,-97.66667
12224,kaffir_(b),3500,found,1966,34.67167,-101.815
12354,kramer_creek,2300,found,1966,38.3925,-104.17667
12359,kress_(b),2600,found,1966,34.35833,-101.73
18173,pavel,2968,fell,1966,43.46667,25.51667
23102,saint-séverin,271000,fell,1966,45.3,0.23333
23500,seoni,20000,fell,1966,21.68389,79.50083
23622,skiff,3540,found,1966,49.25,-111.86667
24118,umm_ruaba,1700,fell,1966,13.46667,31.21667
24240,wellman_(d),1615,found,1966,33.01667,-102.36667
30364,yocemento,5920,found,1966,38.9,-99.43333
30405,zhigansk,900000,found,1966,68,128.3
2336,armel,9200,found,1967,39.76667,-102.13333
5468,credo,10820,found,1967,-30.36667,120.73333
10116,fluvanna_(a),9500,found,1967,32.8,-101.11667
11847,hartley,2100,found,1967,35.94167,-102.16
12738,laundry_rockhole,1443,found,1967,-31.53333,127.01667
12739,laundry_west,4002,found,1967,-31.46667,126.93333
14665,little_river_(a),4400,found,1967,38.38333,-98.01667
15427,markovka,54200,found,1967,52.4,79.8
15444,masua,1460,found,1967,0,0
16758,mossgiel,32383,found,1967,-33.31667,144.78333
16929,nazareth_(b),3600,found,1967,34.5,-102.25
17928,nova_petropolis,305000,found,1967,-29.43333,-50.91667
18102,parambu,2000,fell,1967,-6.23333,-40.7
18871,portales_(a),3240,found,1967,34.06667,-103.5
18873,portales_(c),6000,found,1967,34.1,-103.41667
23490,seminole_(c),1711,found,1967,32.55,-102.39167
23510,seymchan,323300,found,1967,62.9,152.43333
23885,tathlith,2500,fell,1967,19.38333,43.73333
23985,tiberrhamine,107000,found,1967,28.11667,0.53333
24062,tugalin-bulen,10000,fell,1967,45.46667,105.38333
24281,wiluna,150000,fell,1967,-26.59278,120.32833
30403,zerhamra,630000,found,1967,29.85861,-2.645
428,akhricha,1760,found,1968,28.4625,1.025
5091,boaz_(stone),1800,found,1968,33.65167,-103.70833
5108,boolka,12000,found,1968,-30.06667,141.06667
5508,dalhart,4400,found,1968,36.04333,-102.40833
6645,delphos_(a),1244.7,found,1968,34.08333,-103.525
10085,fenbark,1861,found,1968,-30.44028,121.25694
11998,idalia,7400,found,1968,39.695,-102.295
12213,juromenha,25250,fell,1968,38.74028,-7.27
12237,kalvesta,10000,found,1968,38.08333,-100.25
16760,motpena_(a),8810,found,1968,-31.1,138.26667
16931,nazareth_(d),1500,found,1968,34.58333,-102.08333
16933,nazareth_(iron),11310,found,1968,34.52667,-102.105
22365,quinyambie,1638,found,1968,-30.15,140.98333
23096,saint-aubin,472000,found,1968,48.48333,3.58333
23655,smyer,3273,found,1968,33.58333,-102.16667
24048,tres_estacas,150000,found,1968,0,0
24058,tsarev,1225300,found,1968,48.7,45.7
24265,wildara,500000,found,1968,-28.23333,120.85
24344,wynyard,3479,found,1968,51.88333,-104.18333
2278,allende,2000000,fell,1969,26.96667,-105.31667
2319,aprel'sky,54600,found,1969,53.3,126.11667
2349,ashmore,55400,found,1969,32.9,-102.28333
5020,benjamin,51800,found,1969,33.58333,-99.8
5121,bovedy,5460,fell,1969,54.56667,-6.33333
5162,buenaventura,113600,found,1969,29.8,-107.55
7766,edjudina,4480,found,1969,-29.58639,122.18167
10864,garrison,5116,found,1969,33.86333,-103.34667
10928,glasston,1990,found,1969,48.71667,-97.3
10939,gobabeb,27000,found,1969,-23.55,15.03333
11445,guin,34500,found,1969,33.96667,-87.91667
12005,ikhrarene,5465,found,1969,28.60417,1.04167
12767,leoville_(b),2500,found,1969,39.60833,-100.475
16875,murchison,100000,fell,1969,-36.61667,145.2
16886,myersville,5397,found,1969,28.95,-97.40278
18096,panhandle,1360,found,1969,35.33333,-101.38333
18104,park,13000,found,1969,39.11,-100.36167
18112,patora,4375,fell,1969,20.93694,82.05
22551,redfields,8740,found,1969,-30.71667,116.5
24335,wooramel,71000,found,1969,-25.65,114.21667
30362,yilmia,40000,found,1969,-31.19167,121.53333
30382,zacatecas_(1969),6660,found,1969,0,0
2309,answer,11090,found,1970,-21.65972,140.90694
5017,benedict,16380,found,1970,41,-97.53333
5044,big_rock_donga,19000,found,1970,-30.55,130.96667
5074,bledsoe,30500,found,1970,33.59167,-103.02667
7708,dongtai,5500,fell,1970,32.91667,120.78333
7713,dora_(stone),1570,found,1970,33.92333,-103.35
7755,dwaleni,3230,fell,1970,-27.2,31.31667
7773,egvekinot,10000,found,1970,66.8,178.2
10023,ellisras,2066,found,1970,-23.83333,27.91667
10061,etosha,110700,found,1970,-18.5,16
10063,euclid,2500,found,1970,47.95833,-96.7
10083,felt,5400,found,1970,36.55,-102.78333
10953,grady_(c),5700,found,1970,34.8,-103.31667
11846,hart_camp,1200,found,1970,33.99833,-102.17667
11876,hereford,2276,found,1970,33.795,-102.24167
12051,isna,23000,found,1970,24.83333,31.66667
12303,kiffa,1500,fell,1970,16.58333,-11.33333
12327,kittakittaooloo,3600,found,1970,-28.03333,138.13333
12449,lakeview,1238,found,1970,34.53333,-101.7
12746,lazbuddie,8600,found,1970,34.5,-102.75
14711,lost_city,17000,fell,1970,36.00833,-95.15
15394,malakal,2000,fell,1970,9.5,31.75
16687,mills,88000,found,1970,36.23,-104.11889
16941,nejo,2450,fell,1970,9.5,35.33333
23999,tillaberi,3000,fell,1970,14.25,1.53333
24030,toronto,2715,found,1970,0,0
24092,two_buttes_(b),3000,found,1970,37.63333,-102.41667
24097,ucera,4590,fell,1970,11.05,-69.85
24272,willaroy,4030,found,1970,-30.1,143.2
2305,anlong,2500,fell,1971,25.15,105.18333
5150,brownell,2000,found,1971,38.69667,-99.70833
5164,bunjil,38750,found,1971,-29.62917,116.48222
5174,burns_flat,1987,found,1971,35.33333,-99.15
10018,ella_island,7500,found,1971,72.88333,-25.11667
10030,elyria,10900,found,1971,38.28,-97.365
10847,galatia,23900,found,1971,38.64167,-98.88333
11431,guadalupe_y_calvo,58630,found,1971,26.1,-106.96667
11818,happy_(a),2860,found,1971,35.68,-101.99333
11821,happy_canyon,16300,found,1971,34.80167,-101.56667
11859,haverö,1544,fell,1971,60.24556,22.06194
12220,kabo,13400,fell,1971,11.85,8.21667
14683,lone_tree,20676,found,1971,41.5,-91.47917
15422,marilia,2500,fell,1971,-22.25,-49.93333
17007,north_west_forrest_(e6),4400,found,1971,-30.6,127.81667
18861,polujamki,18350,found,1971,52.1,79.7
22359,queretaro,5000,found,1971,20.63333,-100.38333
22375,rakity,11400,found,1971,51.8,79.9
23105,salaices,24500,found,1971,27,-105.25
23132,sanclerlandia,279000,found,1971,-16.21667,-50.3
23582,shuangyang,3900,fell,1971,43.5,125.66667
23680,south_plains,4763,found,1971,34.26667,-101.25
24015,tobychan,52100,found,1971,0,0
24256,wichita,2367,found,1971,37.59183,-97.21497
24278,willowbar,2070,found,1971,36.73333,-102.2
30365,yongning,60000,found,1971,22.75,108.33333
51739,cruz_del_eje,14000,found,1971,-30.75,-64.78333
377,adelaide,2031,found,1972,0,0
2308,anson,3900,found,1972,39.33333,-97.56167
5125,bowesmont_(b),1300,found,1972,48.78333,-97.35
6640,delaware,8346,found,1972,35.28333,-93.5
7711,dor_el_gani,2575,found,1972,26.95833,16.03333
11819,happy_(b),2505,found,1972,34.59333,-101.99333
11827,hardtner,13000,found,1972,37.06667,-98.66167
12043,ipiranga,7000,fell,1972,-25.5,-54.5
12277,kenna,10900,found,1972,33.9,-103.55333
12304,kifkakhsyagan,18800,found,1972,64.4,172.7
14648,lider_(a),2160,found,1972,34.655,-101.64
14649,lider_(b),1800,found,1972,34.655,-101.64
15450,mayfield,38400,found,1972,37.30833,-97.545
16846,muleshoe,3600,found,1972,34.12167,-102.695
17010,northbranch,76000,found,1972,39.99167,-98.34167
22373,raguli,4239,found,1972,45.7,43.7
22655,roosevelt,5200,found,1972,34.86667,-98.95
24149,valera,50000,fell,1972,9.31667,-70.62833
24221,watson_001,93000,found,1972,-30.5,131.55
24246,west_point,3100,found,1972,33.075,-102.045
30564,flagler,4100,found,1972,39.23,-102.99
475,alkhamasin,1200000,found,1973,20.6,44.88333
2324,araslanovo,132000,found,1973,55.14167,48.2
5253,canon_city,1400,fell,1973,38.47028,-105.24139
5405,colonia_obrera,12200,found,1973,24.01667,-104.66667
7817,el_sampal,142000,found,1973,-44.53333,-70.36667
14646,lichtenberg,4000,fell,1973,-26.15,26.18333
14750,lueders,35400,found,1973,32.83611,-99.60417
24225,wayside,23600,found,1973,34.80167,-101.68333
4932,balsas,41000,found,1974,-7.53133,-46.04117
5070,blaine_lake,1896.4,found,1974,52.77,-106.89667
5153,brownfield_(c),1550,found,1974,33.135,-102.27833
10038,enshi,8000,fell,1974,30.3,109.5
10069,fairfield,1600,found,1974,39.33333,-84.6
10944,gomez,47000,found,1974,33.18139,-102.40139
10949,gorlovka,3618,fell,1974,48.28333,38.08333
11881,hickiwan,1928,found,1974,32.35833,-112.40889
15412,maralinga,3388,found,1974,-30.3,131.26667
15451,mayo_belwa,4850,fell,1974,8.96667,12.08333
16909,naragh,2700,fell,1974,33.75,51.5
18028,orimattila,1872,found,1974,60.58333,25.58333
23080,saint_augustine,22000,found,1974,40.71667,-90.41667
24016,tokio_(a),6600,found,1974,33.21667,-102.63167
24391,yamato_74013,2059.5,found,1974,-71.83667,36.30417
24392,yamato_74014,2367.9,found,1974,-71.83556,36.30278
24455,yamato_74077,5575.1,found,1974,-71.83556,36.35833
24475,yamato_74097,2193.9,found,1974,-71.825,36.325
24493,yamato_74115,1045.1,found,1974,-71.80833,36.1375
24533,yamato_74155,3073.4,found,1974,-71.81833,36.11944
24568,yamato_74190,3235.7,found,1974,-71.83056,35.44444
24569,yamato_74191,1091.6,found,1974,-71.83333,35.51944
24571,yamato_74193,1818.5,found,1974,-71.64306,35.59444
24732,yamato_74354,2721.1,found,1974,-71.76944,35.76111
24740,yamato_74362,4175,found,1974,-71.78889,35.80278
24749,yamato_74371,5067.9,found,1974,-71.80417,35.49444
24823,yamato_74445,2293.2,found,1974,-71.73889,35.93611
24837,yamato_74459,1719.7,found,1974,-71.72639,35.975
25018,yamato_74640,1065.9,found,1974,-71.71389,35.99722
25025,yamato_74647,2323.8,found,1974,-71.69583,36.01667
5132,brandon,7580,found,1975,40.81,-101.80167
5407,colony,3912,found,1975,35.35,-98.68333
6661,denver_city,26100,found,1975,33.07139,-102.80028
7759,eads,4860,found,1975,38.47,-102.82667
10170,foster,1992,found,1975,33.1,-102.26667
11831,harlowton,4000,found,1975,46.43333,-109.83333
11863,haxtun,15500,found,1975,40.45667,-102.57834
12004,ijopega,7330,fell,1975,-6.03333,145.36667
12350,kossuth,5900,found,1975,40.66667,-84.35
15404,mangalo,1050,found,1975,-33.56667,136.65
15465,meadow_(a),1495,found,1975,33.33139,-102.26889
16644,millen,40800,found,1975,32.83528,-81.87389
16918,naryilco,27000,found,1975,-28.6,141.15
16980,ningbo,14250,fell,1975,29.86667,121.48333
18794,perryton,2114,found,1975,36.35333,-100.73167
22391,rancho_gomelia,15650,found,1975,24.51667,-105.25
22538,red_deer_hill,2510,found,1975,53.075,-105.84167
23714,starvation_lake,12000,found,1975,-30.46667,141.08333
23795,tambakwatu,10500,fell,1975,-7.75,112.76667
24086,tuxtuac,30000,fell,1975,21.66667,-103.36667
24347,xinyi,69000,found,1975,34.36667,118.33333
25069,yamato_75028,6100,found,1975,-71.5,35.66667
25138,yamato_75097,2570.2,found,1975,-71.5,35.66667
25143,yamato_75102,11000,found,1975,-71.5,35.66667
25312,yamato_75271,1797.5,found,1975,-71.5,35.66667
48651,ban_cho_lae,3354,found,1975,19.08833,99.01389
53635,llano_river,4318,found,1975,30.52213,-99.73698
10,acapulco,1914,fell,1976,16.88333,-99.9
1308,allan_hills_a76001,20151,found,1976,-76.75,159.33333
1309,allan_hills_a76002,1510,found,1976,-76.71667,159.66667
1310,allan_hills_a76003,10495,found,1976,-76.71667,159.66667
1312,allan_hills_a76005,1425,found,1976,-76.71667,159.66667
1313,allan_hills_a76006,1137,found,1976,-76.71667,159.66667
1315,allan_hills_a76008,1150,found,1976,-76.71667,159.66667
1316,allan_hills_a76009,407000,found,1976,-76.71667,159.66667
2287,alvord,17500,found,1976,43.32222,-96.28889
6698,dhajala,45000,fell,1976,22.37778,71.42722
7748,dunganville,54000,found,1976,-42.55,171.35
10117,fluvanna_(b),4110,found,1976,32.90333,-101.16278
10937,gnowangerup,33600,found,1976,-34,118.1
11816,hangman_crossing,1300,found,1976,38.91972,-85.94722
11861,haviland_(b),2092,found,1976,37.59667,-99.125
12084,jerslev,40000,found,1976,55.608833,11.229167
12171,jilin,4000000,fell,1976,44.05,126.16667
12312,kimbolton,7500,found,1976,-40.07139,175.73028
16764,mount_baldr_a76001,4108,found,1976,-77.58389,160.32639
16765,mount_baldr_a76002,13773,found,1976,-77.58389,160.37361
16937,needmore,1793,found,1976,34.04472,-102.79917
18007,old_woman,2753000,found,1976,34.46667,-115.23333
18908,qingzhen,2600,fell,1976,26.53333,106.46667
22549,red_rock,47600,found,1976,35.41667,-117.91667
23163,santa_clara,63000,found,1976,24.46667,-103.35
23470,seagraves_(b),4600,found,1976,32.91722,-102.5
23491,seminole_(d),1710,found,1976,32.71667,-102.65
23494,seminole_draw_(b),1192.7,found,1976,32.71667,-102.65
24099,udaipur,2000,fell,1976,0,0
24214,wardswell_draw,3000,found,1976,32.90333,-102.925
24282,wimberley,7800,found,1976,29.96667,-98.11667
30408,zhuanghe,2900,fell,1976,39.66667,122.98333
472,aliskerovo,58400,found,1977,67.88333,167.5
1320,allan_hills_a77004,2230,found,1977,-76.71667,159.66667
1494,allan_hills_a77182,1134.7,found,1977,-76.71667,159.66667
1519,allan_hills_a77208,1733,found,1977,-76.71667,159.66667
1525,allan_hills_a77214,2111,found,1977,-76.71667,159.66667
1527,allan_hills_a77216,1470,found,1977,-76.71667,159.66667
1536,allan_hills_a77225,5878,found,1977,-76.71667,159.66667
1537,allan_hills_a77226,15323,found,1977,-76.71667,159.66667
1541,allan_hills_a77230,2473,found,1977,-76.71667,159.66667
1542,allan_hills_a77231,9270,found,1977,-76.71667,159.66667
1543,allan_hills_a77232,6494.3,found,1977,-76.71667,159.66667
1544,allan_hills_a77233,4087,found,1977,-76.71667,159.66667
1561,allan_hills_a77250,10555,found,1977,-76.71667,159.66667
1568,allan_hills_a77257,1995.7,found,1977,-76.71667,159.66667
1574,allan_hills_a77263,1669,found,1977,-76.71667,159.66667
1580,allan_hills_a77269,1045,found,1977,-76.71667,159.66667
1590,allan_hills_a77280,3226,found,1977,-76.71667,159.66667
1591,allan_hills_a77281,1231,found,1977,-76.71667,159.66667
1592,allan_hills_a77282,4127.1,found,1977,-76.71667,159.66667
1593,allan_hills_a77283,10510,found,1977,-76.71667,159.66667
1598,allan_hills_a77288,1880,found,1977,-76.71667,159.66667
1599,allan_hills_a77289,2186,found,1977,-76.71667,159.66667
1600,allan_hills_a77290,3784,found,1977,-76.71667,159.66667
1604,allan_hills_a77294,1351,found,1977,-76.71667,159.66667
1614,allan_hills_a77305,6444,found,1977,-76.71667,159.66667
2284,alta'ameem,6000,fell,1977,35.27333,44.21556
5090,bo_xian,7500,fell,1977,33.83333,115.83333
5322,changde,1810,fell,1977,29.08333,111.75
5367,circle_back,2268,found,1977,34.02806,-102.68
6635,deán_funes,9260,found,1977,-30.43333,-64.2
10060,ethiudna,74318,found,1977,-32.03333,139.78333
10082,felsted,13500,found,1977,54.99056,9.49194
10175,frankel_city,4700,found,1977,32.33333,-102.745
10840,fuyang,2500,fell,1977,32.9,115.9
10844,gaines_county_park,13700,found,1977,32.83333,-102.73333
12003,iguaracu,1200,fell,1977,-23.2,-51.83333
12039,innisfree,4576,fell,1977,53.415,-111.3375
12073,jaralito,11138,found,1977,26.26583,-103.885
14716,louisville,1300,fell,1977,38.25,-85.75
15493,merweville,6970,found,1977,-32.75833,21.68333
16642,millarville,15636,found,1977,50.79722,-114.30944
16932,nazareth_(e),13100,found,1977,34.58333,-102.05
18904,purgatory_peak_a77006,19068,found,1977,-77.33333,162.3
23505,seth_ward,3800,found,1977,34.26889,-101.64722
24346,xingyang,75500,fell,1977,32.33333,114.31667
30360,ybbsitz,15000,found,1977,47.96,14.89
32771,purmela,4500,found,1977,29.5,-98.05
45977,el_paso_de_aguila,17226,fell,1977,25.37,-97.37
50998,larned,28100,found,1977,38.1995,-99.162
1666,allan_hills_a78050,1045,found,1978,-76.71667,159.66667
1699,allan_hills_a78084,14280,found,1978,-76.71667,159.66667
1727,allan_hills_a78112,2485,found,1978,-76.71667,159.66667
1745,allan_hills_a78130,2733,found,1978,-76.71667,159.66667
1864,allan_hills_a78251,1312,found,1978,-76.71667,159.66667
1865,allan_hills_a78252,2789,found,1978,-76.71667,159.66667
2280,allred,6570,found,1978,33.1,-102.95
4923,bakhardok,4120,found,1978,38.6,58
4970,bates_nunataks_a78002,4301,found,1978,-80.25,153.5
4971,bates_nunataks_a78004,1079,found,1978,-80.25,153.5
5120,bouvante,8300,found,1978,44.92222,5.26778
5131,brainard,138300,found,1978,41.15333,-96.955
5357,chitenay,4000,fell,1978,47.47083,0.97667
5376,claytonville_(b),5136,found,1978,34.34833,-101.65833
6677,derrick_peak_a78001,15200,found,1978,-80.06667,156.38333
6678,derrick_peak_a78002,7188,found,1978,-80.06667,156.38333
6681,derrick_peak_a78005,18600,found,1978,-80.06667,156.38333
6683,derrick_peak_a78007,11800,found,1978,-80.06667,156.38333
6684,derrick_peak_a78008,59400,found,1978,-80.06667,156.38333
6685,derrick_peak_a78009,138100,found,1978,-80.06667,156.38333
6687,derrick_peak_a78011,31800,found,1978,-80.06667,156.38333
6688,derrick_peak_a78012,26000,found,1978,-80.06667,156.38333
6689,derrick_peak_a78013,10600,found,1978,-80.06667,156.38333
6690,derrick_peak_a78014,2250,found,1978,-80.06667,156.38333
6691,derrick_peak_a78015,1260,found,1978,-80.06667,156.38333
10112,florey,110800,found,1978,32.5225,-102.705
10865,gascoyne_junction,10000,found,1978,-24.5,115.18333
12360,kress_(c),5600,found,1978,34.33833,-101.71667
12362,krider,2386,found,1978,34.46667,-103.92167
12761,leikanger,1513,found,1978,61.26667,6.85
16599,meteorite_hills_a78003,1726,found,1978,-79.68333,155.75
16624,meteorite_hills_a78028,20657,found,1978,-79.68333,155.75
17932,novosibirsk,11410,found,1978,55,82.9
17938,nuevo_mercurio,50000,fell,1978,24.3,-102.13333
22457,reckling_peak_a78002,8483,found,1978,-76.26667,159.25
22458,reckling_peak_a78003,1276,found,1978,-76.26667,159.25
24006,tinnie,15300,found,1978,33.38333,-105.25
1891,allan_hills_a79016,1146,found,1979,-76.71667,159.66667
1900,allan_hills_a79025,1208,found,1979,-76.71667,159.66667
5001,belgica_7904,1234,found,1979,-72.58333,31.25
5067,blackwater_draw,1500,found,1979,34.20583,-103.22222
5364,cilimus,1600,fell,1979,-6.95,108.1
5369,clarendon_(a),1964,found,1979,34.905,-100.91333
5447,correo,1400,found,1979,34.95,-107.16667
7714,d'orbigny,16550,found,1979,-37.66667,-61.65
10002,elephant_moraine_a79001,7942,found,1979,-76.29083,157.26667
10003,elephant_moraine_a79002,2843,found,1979,-76.33,157.24278
12074,jartai,20500,fell,1979,39.7,105.8
14667,littlerock,19050,found,1979,34.51667,-117.98333
22461,reckling_peak_a79001,3006,found,1979,-76.26667,159.25
22470,reckling_peak_a79015,10022,found,1979,-76.21541,158.5392
22797,saginaw,44500,found,1979,32.86583,-97.32306
23743,summerfield,6200,found,1979,34.76667,-102.41667
23768,suwanee_spring,1200,found,1979,34.95,-107.16667
24264,wild_horse,1360,found,1979,39.41667,-103.2
25618,yamato_790269,1269.2,found,1979,-71.5,35.66667
25794,yamato_790445,1574,found,1979,-71.5,35.66667
25797,yamato_790448,3480,found,1979,-71.5,35.66667
25811,yamato_790462,1371,found,1979,-71.5,35.66667
25868,yamato_790519,1388.4,found,1979,-71.5,35.66667
26072,yamato_790723,5483.2,found,1979,-71.5,35.66667
26073,yamato_790724,2166,found,1979,-71.5,35.66667
26088,yamato_790739,1831.3,found,1979,-71.5,35.66667
26098,yamato_790749,1714.8,found,1979,-71.5,35.66667
26295,yamato_790946,2507,found,1979,-71.5,35.66667
26306,yamato_790957,6175,found,1979,-71.5,35.66667
26313,yamato_790964,3335,found,1979,-71.5,35.66667
26377,yamato_791028,1053,found,1979,-71.5,35.66667
26437,yamato_791088,2138,found,1979,-71.5,35.66667
26558,yamato_791209,3288,found,1979,-71.5,35.66667
26661,yamato_791312,1841,found,1979,-71.5,35.66667
26755,yamato_791406,2048,found,1979,-71.5,35.66667
26849,yamato_791500,1252,found,1979,-71.5,35.66667
26888,yamato_791539,1907,found,1979,-71.5,35.66667
26979,yamato_791630,2243,found,1979,-71.5,35.66667
27059,yamato_791710,1607,found,1979,-71.5,35.66667
27066,yamato_791717,25322,found,1979,-71.5,35.66667
27125,yamato_791776,2543,found,1979,-71.5,35.66667
27134,yamato_791785,8826,found,1979,-71.5,35.66667
27194,yamato_791845,1559,found,1979,-71.5,35.66667
27218,yamato_791869,6784,found,1979,-71.5,35.66667
27254,yamato_791905,1847,found,1979,-71.5,35.66667
27274,yamato_791925,1311,found,1979,-71.5,35.66667
27275,yamato_791926,2602,found,1979,-71.5,35.66667
27305,yamato_791956,1015,found,1979,-71.5,35.66667
27310,yamato_791961,1387,found,1979,-71.5,35.66667
28085,yamato_792736,3904,found,1979,-71.5,35.66667
28110,yamato_792761,1719,found,1979,-71.5,35.66667
28113,yamato_792764,2649,found,1979,-71.5,35.66667
28118,yamato_792769,4232,found,1979,-71.5,35.66667
28119,yamato_792770,4179,found,1979,-71.5,35.66667
28120,yamato_792771,2697,found,1979,-71.5,35.66667
28121,yamato_792772,1044,found,1979,-71.5,35.66667
28517,yamato_793168,3859,found,1979,-71.5,35.66667
28550,yamato_793201,1087,found,1979,-71.5,35.66667
28563,yamato_793214,3111,found,1979,-71.5,35.66667
28584,yamato_793235,18126,found,1979,-71.5,35.66667
28724,yamato_793375,4864,found,1979,-71.5,35.66667
28750,yamato_793401,2554,found,1979,-71.5,35.66667
28757,yamato_793408,1140,found,1979,-71.5,35.66667
28793,yamato_793444,1099,found,1979,-71.5,35.66667
28813,yamato_793464,2801,found,1979,-71.5,35.66667
28845,yamato_793496,4583,found,1979,-71.5,35.66667
28888,yamato_793539,1224,found,1979,-71.5,35.66667
28998,yamato_794044,1228,found,1979,-71.5,35.66667
1929,allan_hills_a80101,8725,found,1980,-76.77389,159.275
5452,cosmo_newberry,2156,found,1980,-27.95,122.88333
7742,dumas_(b),2284,found,1980,35.925,-101.895
10125,forrest_002,26000,found,1980,-30.98333,127.88333
11437,guangrao,1900,fell,1980,37.1,118.4
12225,kaffir_(c),7947,found,1980,34.67167,-101.815
12228,kaidun,2000,fell,1980,15,48.3
14754,lunan,2520,fell,1980,24.8,103.3
15460,mccracken,1530,found,1980,38.525,-99.81
16631,mianchi,1100,fell,1980,34.8,111.7
16753,morton,6400,found,1980,33.71667,-102.76667
16897,nainital,5000,found,1980,29.36667,79.43333
17951,nullarbor_011,3388,found,1980,0,0
17952,nullarbor_012,7300,found,1980,0,0
17954,nullarbor_014,1733,found,1980,0,0
17955,nullarbor_015,3986,found,1980,0,0
18070,page_city,13630,found,1980,39.16667,-101.28333
22602,richland_springs,1900,fell,1980,31.25,-99.03333
22638,rock_creek,1641,found,1980,34.42222,-101.4975
22744,roosevelt_county_089,1615,found,1980,34.13333,-103.53333
23691,springlake,17300,found,1980,34.34444,-102.22361
24345,xi_ujimgin,5900,fell,1980,44.66667,117.5
56382,ragland_hill,11800,found,1980,34.78333,-103.66667
56577,retuerta_del_bullaque,100000,found,1980,39.45889,-4.3775
373,acuña,217700,found,1981,29.31667,-100.96667
433,akyumak,50000,fell,1981,39.91667,42.81667
1973,allan_hills_a81013,17727,found,1981,-76.747559999999993,158.84338
1975,allan_hills_a81015,5489,found,1981,-76.71367,158.78126
1976,allan_hills_a81016,3850.2,found,1981,-76.73294,158.80698
1977,allan_hills_a81017,1434.4,found,1981,-76.77361,159.2775
1978,allan_hills_a81018,2236.9,found,1981,-76.82601,158.19412
1979,allan_hills_a81019,1051.2,found,1981,-76.82743,158.21117
1980,allan_hills_a81020,1352.5,found,1981,-76.69333,159.07667
1987,allan_hills_a81027,3835.3,found,1981,-76.69,159.26305
1990,allan_hills_a81030,1851.6,found,1981,-76.70139,159.38861
1991,allan_hills_a81031,1594.9,found,1981,-76.705,159.37944
2312,anyujskij,100000,found,1981,66.9,164.2
5046,bilibino,1000000,found,1981,67.3,160.8
5052,binya,11300,found,1981,-34.225,146.38167
5297,cat_mountain,2700,found,1981,32.14833,-111.11167
5504,dahmani,18000,fell,1981,35.61667,8.83333
6617,davy_(b),3770,found,1981,29.00833,-97.70556
6618,dawn_(a),7682,found,1981,34.86,-102.12
7646,dimmitt_(b),2800,found,1981,34.48333,-102.32833
7650,divnoe,12700,found,1981,45.7,43.7
7769,edmonson_(b),14402,found,1981,34.28333,-101.83333
10028,eltanin,1200,found,1981,-57.78667,-90.79333
10184,friona,21900,found,1981,34.54,-102.56833
11465,gursum,34650,fell,1981,9.36667,42.41667
11866,hebei,1910,found,1981,0,0
12226,kaffir_(d),26760,found,1981,34.67167,-101.815
12242,kamyshla,1540,found,1981,54,52.2
12452,lamesa,16900,found,1981,32.88333,-101.88333
15371,machinga,93200,fell,1981,-15.21222,35.24222
18019,omolon,250000,fell,1981,64.02,161.80833
24051,tribune_(b),1470,found,1981,0,0
24064,tule_draw,2300,found,1981,34.66667,-102
24068,tulia_(c),4270,found,1981,0,0
24069,tulia_(d),17700,found,1981,34.60667,-101.76667
24126,ural,9400,found,1981,55.8,66
24328,wolsey,74830,found,1981,44.4,-98.53333
29077,yamato_81016,1006.33,found,1981,-71.5,35.66667
29110,yamato_81049,2748,found,1981,-71.5,35.66667
29136,yamato_81075,1161.37,found,1981,-71.5,35.66667
29185,yamato_81124,10790,found,1981,-71.5,35.66667
29193,yamato_81132,6607,found,1981,-71.5,35.66667
30406,zhongxiang,100000,found,1981,31.2,112.5
45978,lovina,8200,found,1981,-8.65,115.21667
479,allan_hills_82103,2529.2,found,1982,-76.89661,156.99137
4978,bayard,75000,found,1982,41.81667,-103.36667
7729,drayton,2350,found,1982,48.66667,-97.11667
7827,elephant_moraine_82602,1824.1,found,1982,-76.29139,157.20833
7828,elephant_moraine_82603,8210,found,1982,-76.29861,157.33083
7829,elephant_moraine_82604,1570.6,found,1982,-76.18333,157.16667
11448,gujargaon,2449,fell,1982,22.98333,76.05
11453,gunlock,6800,found,1982,37.28333,-113.78333
16896,naiman,1050,found,1982,42.83333,120.66667
18266,pecora_escarpment_82503,8308,found,1982,-85.63333,-68.7
18267,pecora_escarpment_82504,3093.6,found,1982,-85.67925,-68.72432
18268,pecora_escarpment_82505,3085.5,found,1982,-85.61621,-68.5873
18269,pecora_escarpment_82506,5316,found,1982,-85.69109,-67.71308
18907,qidong,1275,fell,1982,32.08333,121.5
22372,ragland,12100,found,1982,34.76778,-103.55
22562,reid_007,2050,found,1982,-30.65,128.40833
23917,thiel_mountains_82405,1115.7,found,1982,-85.25,-91
24251,wethersfield_(1982),2756,fell,1982,41.71056,-72.67361
24267,wilder,26600,found,1982,43.72444,-116.91167
29244,yamato_82050,1906.61,found,1982,-71.5,35.66667
29247,yamato_82053,2100,found,1982,-71.5,35.66667
29305,yamato_82111,9011,found,1982,-71.5,35.66667
29316,yamato_82122,1521.8,found,1982,-71.5,35.66667
29357,yamato_82163,3622,found,1982,-71.5,35.66667
29371,yamato_82177,1122.64,found,1982,-71.5,35.66667
29381,yamato_82187,1238.83,found,1982,-71.5,35.66667
29382,yamato_82188,2581,found,1982,-71.5,35.66667
521,allan_hills_83001,1568.6,found,1983,-76.72109,158.73715
595,allan_hills_83100,3019,found,1983,-76.71667,159.66667
597,allan_hills_83102,1786.2,found,1983,-77.04164,157.15458
603,allan_hills_83108,1519.4,found,1983,-77.04639,157.07722
5171,burkhala,1825,found,1983,63.8,149
5270,carichic,17000,found,1983,27.93333,-107.05
7767,edmond,4000,found,1983,39.76667,-99.91667
7790,el_bahrain,14000,found,1983,28.6,26.4
7843,elephant_moraine_83201,1059.8,found,1983,-76.295,157.28833
7844,elephant_moraine_83202,1213.2,found,1983,-76.29944,157.21694
7849,elephant_moraine_83207,1238.3,found,1983,-76.26889,157.1725
7855,elephant_moraine_83213,2727,found,1983,-76.28278,157.23195
7856,elephant_moraine_83214,1397.5,found,1983,-76.28611,157.24472
7869,elephant_moraine_83227,1973,found,1983,-76.3,157.27306
